{"nodes":[{"id":11,"name":"Ужгород","label":"м. Ужгород","lng":22.287883,"lat":48.6208,"district":"Ужгородський р-н","state":"Закарпатська обл.","shortName":"Ужг"},{"id":2,"name":"Львів","label":"м. Львів","lng":24.029717,"lat":49.839683,"district":"Львівський р-н","state":"Львівська обл.","shortName":"Льв"},{"id":25,"name":"Івано-Франківськ","label":"м. Івано-Франківськ","lng":24.711117,"lat":48.922633,"district":"Івано-Франківський р-н","state":"Івано-Франківська обл.","shortName":"ІвФ"},{"id":4,"name":"Луцьк","label":"м. Луцьк","lng":25.325383,"lat":50.74723299999999,"district":"Луцький р-н","state":"Волинська обл.","shortName":"Лцк"},{"id":19,"name":"Тернопіль","label":"м. Тернопіль","lng":25.594767,"lat":49.553517,"district":"Тернопільський р-н","state":"Тернопільська обл.","shortName":"Трн"},{"id":15,"name":"Чернівці","label":"м. Чернівці","lng":25.935217,"lat":48.291683,"district":"Чернівецький р-н","state":"Чернівецька обл.","shortName":"Чрц"},{"id":3,"name":"Рівне","label":"м. Рівне","lng":26.251617,"lat":50.6199,"district":"Рівненський р-н","state":"Рівненська обл.","shortName":"Рвн"},{"id":23,"name":"Хмельницький","label":"м. Хмельницький","lng":26.9871331,"lat":49.422983,"district":"Хмельницький р-н","state":"Хмельницька обл.","shortName":"Хмл"},{"id":10,"name":"Вінниця","label":"м. Вінниця","lng":28.4682169,"lat":49.233083,"district":"Вінницький р-н","state":"Вінницька обл.","shortName":"Внц"},{"id":9,"name":"Житомир","label":"м. Житомир","lng":28.6586669,"lat":50.25465,"district":"Житомирський р-н","state":"Житомирська обл.","shortName":"Жтм"},{"id":44,"name":"Умань","label":"м. Умань Уманський р-н Черкаська обл.","lng":30.2214499,"lat":48.74939269999999,"district":"Уманський р-н","state":"Черкаська обл.","shortName":"Умн"},{"id":0,"name":"Київ","label":"м. Київ","lng":30.52361111,"lat":50.45,"district":"Київський р-н","state":"Київська обл.","shortName":"Київ"},{"id":5,"name":"Одеса","label":"м. Одеса","lng":30.7233095,"lat":46.482526,"district":"Одеський р-н","state":"Одеська обл.","shortName":"Одс"},{"id":18,"name":"Чернігів","label":"м. Чернігів","lng":31.28934989999999,"lat":51.4982,"district":"Чернігівський р-н","state":"Чернігівська обл.","shortName":"Чрг"},{"id":17,"name":"Миколаїв","label":"м. Миколаїв","lng":31.99458289999999,"lat":46.975033,"district":"Миколаївський р-н","state":"Миколаївська обл.","shortName":"Мкл"},{"id":12,"name":"Черкаси","label":"м. Черкаси","lng":32.059767,"lat":49.444433,"district":"Черкаський р-н","state":"Черкаська обл.","shortName":"Чрк"},{"id":24,"name":"Кропивницький","label":"м. Кропивницький","lng":32.262317,"lat":48.50793300000001,"district":"Кропивницький р-н","state":"Кіровоградська обл.","shortName":"Крп"},{"id":246,"name":"Прилуки","label":"м. Прилуки Прилуцький р-н Чернігівська обл.","lng":32.3875825,"lat":50.5884714,"district":"Прилуцький р-н","state":"Чернігівська обл.","shortName":"Прл"},{"id":6,"name":"Херсон","label":"м. Херсон","lng":32.616867,"lat":46.635417,"district":"Херсонський р-н","state":"Херсонська обл.","shortName":"Хрс"},{"id":334,"name":"Кременчук","label":"м. Кременчук Кременчуцький р-н Полтавська обл.","lng":33.410033,"lat":49.065783,"district":"Кременчуцький р-н","state":"Полтавська обл.","shortName":"Крем"},{"id":407,"name":"Кривий Ріг","label":"м. Кривий Ріг Криворізький р-н Дніпропетровська обл.","lng":33.391783,"lat":47.910483,"district":"Криворізький р-н","state":"Дніпропетровська обл.","shortName":"КРг"},{"id":21,"name":"Сімферополь","label":"м. Сімферополь","lng":34.102417,"lat":44.952117,"district":"Сімферопольський р-н","state":"АР Крим","shortName":"Смф"},{"id":13,"name":"Полтава","label":"м. Полтава","lng":34.5514169,"lat":49.58826699999999,"district":"Полтавський р-н","state":"Полтавська обл.","shortName":"Плт"},{"id":1,"name":"Суми","label":"м. Суми","lng":34.7981,"lat":50.9077,"district":"Сумський р-н","state":"Сумська обл.","shortName":"Сум"},{"id":7,"name":"Дніпро","label":"м. Дніпро","lng":35.046183,"lat":48.464717,"district":"Дніпровський р-н","state":"Дніпропетровська обл.","shortName":"Днп"},{"id":20,"name":"Запоріжжя","label":"м. Запоріжжя","lng":35.139567,"lat":47.8388,"district":"Запорізький р-н","state":"Запорізька обл.","shortName":"Зпр"},{"id":377,"name":"Мелітополь","label":"м. Мелітополь Мелітопольський р-н Запорізька обл.","lng":35.3586996,"lat":46.8550216,"district":"Мелітопольський р-н","state":"Запорізька обл.","shortName":"Млт"},{"id":8,"name":"Харків","label":"м. Харків","lng":36.230383,"lat":49.9935,"district":"Харківський р-н","state":"Харківська обл.","shortName":"Хрк"},{"id":14,"name":"Донецьк","label":"м. Донецьк","lng":37.80222,"lat":48.02278,"district":"Донецький р-н","state":"Донецька обл.","shortName":"Днц"},{"id":16,"name":"Луганськ","label":"м. Луганськ","lng":39.307815,"lat":48.574041,"district":"Луганський р-н","state":"Луганська обл.","shortName":"Лгн"}],"lines":[{"id":0,"source":{"id":11,"name":"Ужгород","label":"м. Ужгород","lng":22.287883,"lat":48.6208,"district":"Ужгородський р-н","state":"Закарпатська обл.","shortName":"Ужг"},"target":{"id":2,"name":"Львів","label":"м. Львів","lng":24.029717,"lat":49.839683,"district":"Львівський р-н","state":"Львівська обл.","shortName":"Льв"},"weight":268},{"id":1,"source":{"id":11,"name":"Ужгород","label":"м. Ужгород","lng":22.287883,"lat":48.6208,"district":"Ужгородський р-н","state":"Закарпатська обл.","shortName":"Ужг"},"target":{"id":25,"name":"Івано-Франківськ","label":"м. Івано-Франківськ","lng":24.711117,"lat":48.922633,"district":"Івано-Франківський р-н","state":"Івано-Франківська обл.","shortName":"ІвФ"},"weight":270},{"id":2,"source":{"id":2,"name":"Львів","label":"м. Львів","lng":24.029717,"lat":49.839683,"district":"Львівський р-н","state":"Львівська обл.","shortName":"Льв"},"target":{"id":25,"name":"Івано-Франківськ","label":"м. Івано-Франківськ","lng":24.711117,"lat":48.922633,"district":"Івано-Франківський р-н","state":"Івано-Франківська обл.","shortName":"ІвФ"},"weight":135},{"id":3,"source":{"id":2,"name":"Львів","label":"м. Львів","lng":24.029717,"lat":49.839683,"district":"Львівський р-н","state":"Львівська обл.","shortName":"Льв"},"target":{"id":4,"name":"Луцьк","label":"м. Луцьк","lng":25.325383,"lat":50.74723299999999,"district":"Луцький р-н","state":"Волинська обл.","shortName":"Лцк"},"weight":151},{"id":4,"source":{"id":2,"name":"Львів","label":"м. Львів","lng":24.029717,"lat":49.839683,"district":"Львівський р-н","state":"Львівська обл.","shortName":"Льв"},"target":{"id":19,"name":"Тернопіль","label":"м. Тернопіль","lng":25.594767,"lat":49.553517,"district":"Тернопільський р-н","state":"Тернопільська обл.","shortName":"Трн"},"weight":127},{"id":5,"source":{"id":2,"name":"Львів","label":"м. Львів","lng":24.029717,"lat":49.839683,"district":"Львівський р-н","state":"Львівська обл.","shortName":"Льв"},"target":{"id":3,"name":"Рівне","label":"м. Рівне","lng":26.251617,"lat":50.6199,"district":"Рівненський р-н","state":"Рівненська обл.","shortName":"Рвн"},"weight":211},{"id":6,"source":{"id":25,"name":"Івано-Франківськ","label":"м. Івано-Франківськ","lng":24.711117,"lat":48.922633,"district":"Івано-Франківський р-н","state":"Івано-Франківська обл.","shortName":"ІвФ"},"target":{"id":19,"name":"Тернопіль","label":"м. Тернопіль","lng":25.594767,"lat":49.553517,"district":"Тернопільський р-н","state":"Тернопільська обл.","shortName":"Трн"},"weight":133},{"id":7,"source":{"id":25,"name":"Івано-Франківськ","label":"м. Івано-Франківськ","lng":24.711117,"lat":48.922633,"district":"Івано-Франківський р-н","state":"Івано-Франківська обл.","shortName":"ІвФ"},"target":{"id":15,"name":"Чернівці","label":"м. Чернівці","lng":25.935217,"lat":48.291683,"district":"Чернівецький р-н","state":"Чернівецька обл.","shortName":"Чрц"},"weight":134},{"id":8,"source":{"id":4,"name":"Луцьк","label":"м. Луцьк","lng":25.325383,"lat":50.74723299999999,"district":"Луцький р-н","state":"Волинська обл.","shortName":"Лцк"},"target":{"id":3,"name":"Рівне","label":"м. Рівне","lng":26.251617,"lat":50.6199,"district":"Рівненський р-н","state":"Рівненська обл.","shortName":"Рвн"},"weight":74},{"id":9,"source":{"id":19,"name":"Тернопіль","label":"м. Тернопіль","lng":25.594767,"lat":49.553517,"district":"Тернопільський р-н","state":"Тернопільська обл.","shortName":"Трн"},"target":{"id":15,"name":"Чернівці","label":"м. Чернівці","lng":25.935217,"lat":48.291683,"district":"Чернівецький р-н","state":"Чернівецька обл.","shortName":"Чрц"},"weight":173},{"id":10,"source":{"id":19,"name":"Тернопіль","label":"м. Тернопіль","lng":25.594767,"lat":49.553517,"district":"Тернопільський р-н","state":"Тернопільська обл.","shortName":"Трн"},"target":{"id":3,"name":"Рівне","label":"м. Рівне","lng":26.251617,"lat":50.6199,"district":"Рівненський р-н","state":"Рівненська обл.","shortName":"Рвн"},"weight":154},{"id":11,"source":{"id":19,"name":"Тернопіль","label":"м. Тернопіль","lng":25.594767,"lat":49.553517,"district":"Тернопільський р-н","state":"Тернопільська обл.","shortName":"Трн"},"target":{"id":23,"name":"Хмельницький","label":"м. Хмельницький","lng":26.9871331,"lat":49.422983,"district":"Хмельницький р-н","state":"Хмельницька обл.","shortName":"Хмл"},"weight":112},{"id":12,"source":{"id":15,"name":"Чернівці","label":"м. Чернівці","lng":25.935217,"lat":48.291683,"district":"Чернівецький р-н","state":"Чернівецька обл.","shortName":"Чрц"},"target":{"id":23,"name":"Хмельницький","label":"м. Хмельницький","lng":26.9871331,"lat":49.422983,"district":"Хмельницький р-н","state":"Хмельницька обл.","shortName":"Хмл"},"weight":188},{"id":13,"source":{"id":15,"name":"Чернівці","label":"м. Чернівці","lng":25.935217,"lat":48.291683,"district":"Чернівецький р-н","state":"Чернівецька обл.","shortName":"Чрц"},"target":{"id":10,"name":"Вінниця","label":"м. Вінниця","lng":28.4682169,"lat":49.233083,"district":"Вінницький р-н","state":"Вінницька обл.","shortName":"Внц"},"weight":272},{"id":14,"source":{"id":3,"name":"Рівне","label":"м. Рівне","lng":26.251617,"lat":50.6199,"district":"Рівненський р-н","state":"Рівненська обл.","shortName":"Рвн"},"target":{"id":23,"name":"Хмельницький","label":"м. Хмельницький","lng":26.9871331,"lat":49.422983,"district":"Хмельницький р-н","state":"Хмельницька обл.","shortName":"Хмл"},"weight":194},{"id":15,"source":{"id":3,"name":"Рівне","label":"м. Рівне","lng":26.251617,"lat":50.6199,"district":"Рівненський р-н","state":"Рівненська обл.","shortName":"Рвн"},"target":{"id":9,"name":"Житомир","label":"м. Житомир","lng":28.6586669,"lat":50.25465,"district":"Житомирський р-н","state":"Житомирська обл.","shortName":"Жтм"},"weight":188},{"id":16,"source":{"id":23,"name":"Хмельницький","label":"м. Хмельницький","lng":26.9871331,"lat":49.422983,"district":"Хмельницький р-н","state":"Хмельницька обл.","shortName":"Хмл"},"target":{"id":10,"name":"Вінниця","label":"м. Вінниця","lng":28.4682169,"lat":49.233083,"district":"Вінницький р-н","state":"Вінницька обл.","shortName":"Внц"},"weight":121},{"id":17,"source":{"id":23,"name":"Хмельницький","label":"м. Хмельницький","lng":26.9871331,"lat":49.422983,"district":"Хмельницький р-н","state":"Хмельницька обл.","shortName":"Хмл"},"target":{"id":9,"name":"Житомир","label":"м. Житомир","lng":28.6586669,"lat":50.25465,"district":"Житомирський р-н","state":"Житомирська обл.","shortName":"Жтм"},"weight":192},{"id":18,"source":{"id":10,"name":"Вінниця","label":"м. Вінниця","lng":28.4682169,"lat":49.233083,"district":"Вінницький р-н","state":"Вінницька обл.","shortName":"Внц"},"target":{"id":9,"name":"Житомир","label":"м. Житомир","lng":28.6586669,"lat":50.25465,"district":"Житомирський р-н","state":"Житомирська обл.","shortName":"Жтм"},"weight":153},{"id":19,"source":{"id":10,"name":"Вінниця","label":"м. Вінниця","lng":28.4682169,"lat":49.233083,"district":"Вінницький р-н","state":"Вінницька обл.","shortName":"Внц"},"target":{"id":44,"name":"Умань","label":"м. Умань Уманський р-н Черкаська обл.","lng":30.2214499,"lat":48.74939269999999,"district":"Уманський р-н","state":"Черкаська обл.","shortName":"Умн"},"weight":161},{"id":20,"source":{"id":10,"name":"Вінниця","label":"м. Вінниця","lng":28.4682169,"lat":49.233083,"district":"Вінницький р-н","state":"Вінницька обл.","shortName":"Внц"},"target":{"id":0,"name":"Київ","label":"м. Київ","lng":30.52361111,"lat":50.45,"district":"Київський р-н","state":"Київська обл.","shortName":"Київ"},"weight":262},{"id":21,"source":{"id":9,"name":"Житомир","label":"м. Житомир","lng":28.6586669,"lat":50.25465,"district":"Житомирський р-н","state":"Житомирська обл.","shortName":"Жтм"},"target":{"id":0,"name":"Київ","label":"м. Київ","lng":30.52361111,"lat":50.45,"district":"Київський р-н","state":"Київська обл.","shortName":"Київ"},"weight":139},{"id":22,"source":{"id":44,"name":"Умань","label":"м. Умань Уманський р-н Черкаська обл.","lng":30.2214499,"lat":48.74939269999999,"district":"Уманський р-н","state":"Черкаська обл.","shortName":"Умн"},"target":{"id":0,"name":"Київ","label":"м. Київ","lng":30.52361111,"lat":50.45,"district":"Київський р-н","state":"Київська обл.","shortName":"Київ"},"weight":211},{"id":23,"source":{"id":44,"name":"Умань","label":"м. Умань Уманський р-н Черкаська обл.","lng":30.2214499,"lat":48.74939269999999,"district":"Уманський р-н","state":"Черкаська обл.","shortName":"Умн"},"target":{"id":5,"name":"Одеса","label":"м. Одеса","lng":30.7233095,"lat":46.482526,"district":"Одеський р-н","state":"Одеська обл.","shortName":"Одс"},"weight":271},{"id":24,"source":{"id":0,"name":"Київ","label":"м. Київ","lng":30.52361111,"lat":50.45,"district":"Київський р-н","state":"Київська обл.","shortName":"Київ"},"target":{"id":18,"name":"Чернігів","label":"м. Чернігів","lng":31.28934989999999,"lat":51.4982,"district":"Чернігівський р-н","state":"Чернігівська обл.","shortName":"Чрг"},"weight":157},{"id":25,"source":{"id":0,"name":"Київ","label":"м. Київ","lng":30.52361111,"lat":50.45,"district":"Київський р-н","state":"Київська обл.","shortName":"Київ"},"target":{"id":12,"name":"Черкаси","label":"м. Черкаси","lng":32.059767,"lat":49.444433,"district":"Черкаський р-н","state":"Черкаська обл.","shortName":"Чрк"},"weight":196},{"id":26,"source":{"id":0,"name":"Київ","label":"м. Київ","lng":30.52361111,"lat":50.45,"district":"Київський р-н","state":"Київська обл.","shortName":"Київ"},"target":{"id":246,"name":"Прилуки","label":"м. Прилуки Прилуцький р-н Чернігівська обл.","lng":32.3875825,"lat":50.5884714,"district":"Прилуцький р-н","state":"Чернігівська обл.","shortName":"Прл"},"weight":148},{"id":27,"source":{"id":5,"name":"Одеса","label":"м. Одеса","lng":30.7233095,"lat":46.482526,"district":"Одеський р-н","state":"Одеська обл.","shortName":"Одс"},"target":{"id":17,"name":"Миколаїв","label":"м. Миколаїв","lng":31.99458289999999,"lat":46.975033,"district":"Миколаївський р-н","state":"Миколаївська обл.","shortName":"Мкл"},"weight":135},{"id":28,"source":{"id":5,"name":"Одеса","label":"м. Одеса","lng":30.7233095,"lat":46.482526,"district":"Одеський р-н","state":"Одеська обл.","shortName":"Одс"},"target":{"id":24,"name":"Кропивницький","label":"м. Кропивницький","lng":32.262317,"lat":48.50793300000001,"district":"Кропивницький р-н","state":"Кіровоградська обл.","shortName":"Крп"},"weight":329},{"id":29,"source":{"id":18,"name":"Чернігів","label":"м. Чернігів","lng":31.28934989999999,"lat":51.4982,"district":"Чернігівський р-н","state":"Чернігівська обл.","shortName":"Чрг"},"target":{"id":246,"name":"Прилуки","label":"м. Прилуки Прилуцький р-н Чернігівська обл.","lng":32.3875825,"lat":50.5884714,"district":"Прилуцький р-н","state":"Чернігівська обл.","shortName":"Прл"},"weight":181},{"id":30,"source":{"id":18,"name":"Чернігів","label":"м. Чернігів","lng":31.28934989999999,"lat":51.4982,"district":"Чернігівський р-н","state":"Чернігівська обл.","shortName":"Чрг"},"target":{"id":1,"name":"Суми","label":"м. Суми","lng":34.7981,"lat":50.9077,"district":"Сумський р-н","state":"Сумська обл.","shortName":"Сум"},"weight":309},{"id":31,"source":{"id":17,"name":"Миколаїв","label":"м. Миколаїв","lng":31.99458289999999,"lat":46.975033,"district":"Миколаївський р-н","state":"Миколаївська обл.","shortName":"Мкл"},"target":{"id":24,"name":"Кропивницький","label":"м. Кропивницький","lng":32.262317,"lat":48.50793300000001,"district":"Кропивницький р-н","state":"Кіровоградська обл.","shortName":"Крп"},"weight":183},{"id":32,"source":{"id":17,"name":"Миколаїв","label":"м. Миколаїв","lng":31.99458289999999,"lat":46.975033,"district":"Миколаївський р-н","state":"Миколаївська обл.","shortName":"Мкл"},"target":{"id":6,"name":"Херсон","label":"м. Херсон","lng":32.616867,"lat":46.635417,"district":"Херсонський р-н","state":"Херсонська обл.","shortName":"Хрс"},"weight":67},{"id":33,"source":{"id":17,"name":"Миколаїв","label":"м. Миколаїв","lng":31.99458289999999,"lat":46.975033,"district":"Миколаївський р-н","state":"Миколаївська обл.","shortName":"Мкл"},"target":{"id":407,"name":"Кривий Ріг","label":"м. Кривий Ріг Криворізький р-н Дніпропетровська обл.","lng":33.391783,"lat":47.910483,"district":"Криворізький р-н","state":"Дніпропетровська обл.","shortName":"КРг"},"weight":190},{"id":34,"source":{"id":12,"name":"Черкаси","label":"м. Черкаси","lng":32.059767,"lat":49.444433,"district":"Черкаський р-н","state":"Черкаська обл.","shortName":"Чрк"},"target":{"id":24,"name":"Кропивницький","label":"м. Кропивницький","lng":32.262317,"lat":48.50793300000001,"district":"Кропивницький р-н","state":"Кіровоградська обл.","shortName":"Крп"},"weight":129},{"id":35,"source":{"id":12,"name":"Черкаси","label":"м. Черкаси","lng":32.059767,"lat":49.444433,"district":"Черкаський р-н","state":"Черкаська обл.","shortName":"Чрк"},"target":{"id":246,"name":"Прилуки","label":"м. Прилуки Прилуцький р-н Чернігівська обл.","lng":32.3875825,"lat":50.5884714,"district":"Прилуцький р-н","state":"Чернігівська обл.","shortName":"Прл"},"weight":171},{"id":36,"source":{"id":12,"name":"Черкаси","label":"м. Черкаси","lng":32.059767,"lat":49.444433,"district":"Черкаський р-н","state":"Черкаська обл.","shortName":"Чрк"},"target":{"id":334,"name":"Кременчук","label":"м. Кременчук Кременчуцький р-н Полтавська обл.","lng":33.410033,"lat":49.065783,"district":"Кременчуцький р-н","state":"Полтавська обл.","shortName":"Крем"},"weight":130},{"id":37,"source":{"id":12,"name":"Черкаси","label":"м. Черкаси","lng":32.059767,"lat":49.444433,"district":"Черкаський р-н","state":"Черкаська обл.","shortName":"Чрк"},"target":{"id":13,"name":"Полтава","label":"м. Полтава","lng":34.5514169,"lat":49.58826699999999,"district":"Полтавський р-н","state":"Полтавська обл.","shortName":"Плт"},"weight":257},{"id":38,"source":{"id":24,"name":"Кропивницький","label":"м. Кропивницький","lng":32.262317,"lat":48.50793300000001,"district":"Кропивницький р-н","state":"Кіровоградська обл.","shortName":"Крп"},"target":{"id":334,"name":"Кременчук","label":"м. Кременчук Кременчуцький р-н Полтавська обл.","lng":33.410033,"lat":49.065783,"district":"Кременчуцький р-н","state":"Полтавська обл.","shortName":"Крем"},"weight":134},{"id":39,"source":{"id":24,"name":"Кропивницький","label":"м. Кропивницький","lng":32.262317,"lat":48.50793300000001,"district":"Кропивницький р-н","state":"Кіровоградська обл.","shortName":"Крп"},"target":{"id":407,"name":"Кривий Ріг","label":"м. Кривий Ріг Криворізький р-н Дніпропетровська обл.","lng":33.391783,"lat":47.910483,"district":"Криворізький р-н","state":"Дніпропетровська обл.","shortName":"КРг"},"weight":119},{"id":40,"source":{"id":24,"name":"Кропивницький","label":"м. Кропивницький","lng":32.262317,"lat":48.50793300000001,"district":"Кропивницький р-н","state":"Кіровоградська обл.","shortName":"Крп"},"target":{"id":7,"name":"Дніпро","label":"м. Дніпро","lng":35.046183,"lat":48.464717,"district":"Дніпровський р-н","state":"Дніпропетровська обл.","shortName":"Днп"},"weight":246},{"id":41,"source":{"id":246,"name":"Прилуки","label":"м. Прилуки Прилуцький р-н Чернігівська обл.","lng":32.3875825,"lat":50.5884714,"district":"Прилуцький р-н","state":"Чернігівська обл.","shortName":"Прл"},"target":{"id":334,"name":"Кременчук","label":"м. Кременчук Кременчуцький р-н Полтавська обл.","lng":33.410033,"lat":49.065783,"district":"Кременчуцький р-н","state":"Полтавська обл.","shortName":"Крем"},"weight":216},{"id":42,"source":{"id":246,"name":"Прилуки","label":"м. Прилуки Прилуцький р-н Чернігівська обл.","lng":32.3875825,"lat":50.5884714,"district":"Прилуцький р-н","state":"Чернігівська обл.","shortName":"Прл"},"target":{"id":13,"name":"Полтава","label":"м. Полтава","lng":34.5514169,"lat":49.58826699999999,"district":"Полтавський р-н","state":"Полтавська обл.","shortName":"Плт"},"weight":233},{"id":43,"source":{"id":246,"name":"Прилуки","label":"м. Прилуки Прилуцький р-н Чернігівська обл.","lng":32.3875825,"lat":50.5884714,"district":"Прилуцький р-н","state":"Чернігівська обл.","shortName":"Прл"},"target":{"id":1,"name":"Суми","label":"м. Суми","lng":34.7981,"lat":50.9077,"district":"Сумський р-н","state":"Сумська обл.","shortName":"Сум"},"weight":187},{"id":44,"source":{"id":6,"name":"Херсон","label":"м. Херсон","lng":32.616867,"lat":46.635417,"district":"Херсонський р-н","state":"Херсонська обл.","shortName":"Хрс"},"target":{"id":407,"name":"Кривий Ріг","label":"м. Кривий Ріг Криворізький р-н Дніпропетровська обл.","lng":33.391783,"lat":47.910483,"district":"Криворізький р-н","state":"Дніпропетровська обл.","shortName":"КРг"},"weight":185},{"id":45,"source":{"id":6,"name":"Херсон","label":"м. Херсон","lng":32.616867,"lat":46.635417,"district":"Херсонський р-н","state":"Херсонська обл.","shortName":"Хрс"},"target":{"id":21,"name":"Сімферополь","label":"м. Сімферополь","lng":34.102417,"lat":44.952117,"district":"Сімферопольський р-н","state":"АР Крим","shortName":"Смф"},"weight":321},{"id":46,"source":{"id":6,"name":"Херсон","label":"м. Херсон","lng":32.616867,"lat":46.635417,"district":"Херсонський р-н","state":"Херсонська обл.","shortName":"Хрс"},"target":{"id":20,"name":"Запоріжжя","label":"м. Запоріжжя","lng":35.139567,"lat":47.8388,"district":"Запорізький р-н","state":"Запорізька обл.","shortName":"Зпр"},"weight":307},{"id":47,"source":{"id":6,"name":"Херсон","label":"м. Херсон","lng":32.616867,"lat":46.635417,"district":"Херсонський р-н","state":"Херсонська обл.","shortName":"Хрс"},"target":{"id":377,"name":"Мелітополь","label":"м. Мелітополь Мелітопольський р-н Запорізька обл.","lng":35.3586996,"lat":46.8550216,"district":"Мелітопольський р-н","state":"Запорізька обл.","shortName":"Млт"},"weight":227},{"id":48,"source":{"id":334,"name":"Кременчук","label":"м. Кременчук Кременчуцький р-н Полтавська обл.","lng":33.410033,"lat":49.065783,"district":"Кременчуцький р-н","state":"Полтавська обл.","shortName":"Крем"},"target":{"id":407,"name":"Кривий Ріг","label":"м. Кривий Ріг Криворізький р-н Дніпропетровська обл.","lng":33.391783,"lat":47.910483,"district":"Криворізький р-н","state":"Дніпропетровська обл.","shortName":"КРг"},"weight":154},{"id":49,"source":{"id":334,"name":"Кременчук","label":"м. Кременчук Кременчуцький р-н Полтавська обл.","lng":33.410033,"lat":49.065783,"district":"Кременчуцький р-н","state":"Полтавська обл.","shortName":"Крем"},"target":{"id":13,"name":"Полтава","label":"м. Полтава","lng":34.5514169,"lat":49.58826699999999,"district":"Полтавський р-н","state":"Полтавська обл.","shortName":"Плт"},"weight":113},{"id":50,"source":{"id":334,"name":"Кременчук","label":"м. Кременчук Кременчуцький р-н Полтавська обл.","lng":33.410033,"lat":49.065783,"district":"Кременчуцький р-н","state":"Полтавська обл.","shortName":"Крем"},"target":{"id":7,"name":"Дніпро","label":"м. Дніпро","lng":35.046183,"lat":48.464717,"district":"Дніпровський р-н","state":"Дніпропетровська обл.","shortName":"Днп"},"weight":161},{"id":51,"source":{"id":407,"name":"Кривий Ріг","label":"м. Кривий Ріг Криворізький р-н Дніпропетровська обл.","lng":33.391783,"lat":47.910483,"district":"Криворізький р-н","state":"Дніпропетровська обл.","shortName":"КРг"},"target":{"id":7,"name":"Дніпро","label":"м. Дніпро","lng":35.046183,"lat":48.464717,"district":"Дніпровський р-н","state":"Дніпропетровська обл.","shortName":"Днп"},"weight":146},{"id":52,"source":{"id":407,"name":"Кривий Ріг","label":"м. Кривий Ріг Криворізький р-н Дніпропетровська обл.","lng":33.391783,"lat":47.910483,"district":"Криворізький р-н","state":"Дніпропетровська обл.","shortName":"КРг"},"target":{"id":20,"name":"Запоріжжя","label":"м. Запоріжжя","lng":35.139567,"lat":47.8388,"district":"Запорізький р-н","state":"Запорізька обл.","shortName":"Зпр"},"weight":183},{"id":53,"source":{"id":21,"name":"Сімферополь","label":"м. Сімферополь","lng":34.102417,"lat":44.952117,"district":"Сімферопольський р-н","state":"АР Крим","shortName":"Смф"},"target":{"id":377,"name":"Мелітополь","label":"м. Мелітополь Мелітопольський р-н Запорізька обл.","lng":35.3586996,"lat":46.8550216,"district":"Мелітопольський р-н","state":"Запорізька обл.","shortName":"Млт"},"weight":247},{"id":54,"source":{"id":13,"name":"Полтава","label":"м. Полтава","lng":34.5514169,"lat":49.58826699999999,"district":"Полтавський р-н","state":"Полтавська обл.","shortName":"Плт"},"target":{"id":1,"name":"Суми","label":"м. Суми","lng":34.7981,"lat":50.9077,"district":"Сумський р-н","state":"Сумська обл.","shortName":"Сум"},"weight":176},{"id":55,"source":{"id":13,"name":"Полтава","label":"м. Полтава","lng":34.5514169,"lat":49.58826699999999,"district":"Полтавський р-н","state":"Полтавська обл.","shortName":"Плт"},"target":{"id":7,"name":"Дніпро","label":"м. Дніпро","lng":35.046183,"lat":48.464717,"district":"Дніпровський р-н","state":"Дніпропетровська обл.","shortName":"Днп"},"weight":183},{"id":56,"source":{"id":13,"name":"Полтава","label":"м. Полтава","lng":34.5514169,"lat":49.58826699999999,"district":"Полтавський р-н","state":"Полтавська обл.","shortName":"Плт"},"target":{"id":8,"name":"Харків","label":"м. Харків","lng":36.230383,"lat":49.9935,"district":"Харківський р-н","state":"Харківська обл.","shortName":"Хрк"},"weight":143},{"id":57,"source":{"id":1,"name":"Суми","label":"м. Суми","lng":34.7981,"lat":50.9077,"district":"Сумський р-н","state":"Сумська обл.","shortName":"Сум"},"target":{"id":8,"name":"Харків","label":"м. Харків","lng":36.230383,"lat":49.9935,"district":"Харківський р-н","state":"Харківська обл.","shortName":"Хрк"},"weight":186},{"id":58,"source":{"id":7,"name":"Дніпро","label":"м. Дніпро","lng":35.046183,"lat":48.464717,"district":"Дніпровський р-н","state":"Дніпропетровська обл.","shortName":"Днп"},"target":{"id":20,"name":"Запоріжжя","label":"м. Запоріжжя","lng":35.139567,"lat":47.8388,"district":"Запорізький р-н","state":"Запорізька обл.","shortName":"Зпр"},"weight":85},{"id":59,"source":{"id":7,"name":"Дніпро","label":"м. Дніпро","lng":35.046183,"lat":48.464717,"district":"Дніпровський р-н","state":"Дніпропетровська обл.","shortName":"Днп"},"target":{"id":8,"name":"Харків","label":"м. Харків","lng":36.230383,"lat":49.9935,"district":"Харківський р-н","state":"Харківська обл.","shortName":"Хрк"},"weight":218},{"id":60,"source":{"id":7,"name":"Дніпро","label":"м. Дніпро","lng":35.046183,"lat":48.464717,"district":"Дніпровський р-н","state":"Дніпропетровська обл.","shortName":"Днп"},"target":{"id":14,"name":"Донецьк","label":"м. Донецьк","lng":37.80222,"lat":48.02278,"district":"Донецький р-н","state":"Донецька обл.","shortName":"Днц"},"weight":249},{"id":61,"source":{"id":20,"name":"Запоріжжя","label":"м. Запоріжжя","lng":35.139567,"lat":47.8388,"district":"Запорізький р-н","state":"Запорізька обл.","shortName":"Зпр"},"target":{"id":377,"name":"Мелітополь","label":"м. Мелітополь Мелітопольський р-н Запорізька обл.","lng":35.3586996,"lat":46.8550216,"district":"Мелітопольський р-н","state":"Запорізька обл.","shortName":"Млт"},"weight":135},{"id":62,"source":{"id":20,"name":"Запоріжжя","label":"м. Запоріжжя","lng":35.139567,"lat":47.8388,"district":"Запорізький р-н","state":"Запорізька обл.","shortName":"Зпр"},"target":{"id":14,"name":"Донецьк","label":"м. Донецьк","lng":37.80222,"lat":48.02278,"district":"Донецький р-н","state":"Донецька обл.","shortName":"Днц"},"weight":229},{"id":63,"source":{"id":377,"name":"Мелітополь","label":"м. Мелітополь Мелітопольський р-н Запорізька обл.","lng":35.3586996,"lat":46.8550216,"district":"Мелітопольський р-н","state":"Запорізька обл.","shortName":"Млт"},"target":{"id":14,"name":"Донецьк","label":"м. Донецьк","lng":37.80222,"lat":48.02278,"district":"Донецький р-н","state":"Донецька обл.","shortName":"Днц"},"weight":308},{"id":64,"source":{"id":8,"name":"Харків","label":"м. Харків","lng":36.230383,"lat":49.9935,"district":"Харківський р-н","state":"Харківська обл.","shortName":"Хрк"},"target":{"id":14,"name":"Донецьк","label":"м. Донецьк","lng":37.80222,"lat":48.02278,"district":"Донецький р-н","state":"Донецька обл.","shortName":"Днц"},"weight":335},{"id":65,"source":{"id":8,"name":"Харків","label":"м. Харків","lng":36.230383,"lat":49.9935,"district":"Харківський р-н","state":"Харківська обл.","shortName":"Хрк"},"target":{"id":16,"name":"Луганськ","label":"м. Луганськ","lng":39.307815,"lat":48.574041,"district":"Луганський р-н","state":"Луганська обл.","shortName":"Лгн"},"weight":339},{"id":66,"source":{"id":14,"name":"Донецьк","label":"м. Донецьк","lng":37.80222,"lat":48.02278,"district":"Донецький р-н","state":"Донецька обл.","shortName":"Днц"},"target":{"id":16,"name":"Луганськ","label":"м. Луганськ","lng":39.307815,"lat":48.574041,"district":"Луганський р-н","state":"Луганська обл.","shortName":"Лгн"},"weight":155}]}