[{"id":0,"name":"Київ","label":"м. Київ","lng":30.52361111,"lat":50.45,"district":"Київський р-н","state":"Київська обл."},{"id":1,"name":"Суми","label":"м. Суми","lng":34.7981,"lat":50.9077,"district":"Сумський р-н","state":"Сумська обл."},{"id":2,"name":"Львів","label":"м. Львів","lng":24.029717,"lat":49.839683,"district":"Львівський р-н","state":"Львівська обл."},{"id":3,"name":"Рівне","label":"м. Рівне","lng":26.251617,"lat":50.6199,"district":"Рівненський р-н","state":"Рівненська обл."},{"id":4,"name":"Луцьк","label":"м. Луцьк","lng":25.325383,"lat":50.74723299999999,"district":"Луцький р-н","state":"Волинська обл."},{"id":5,"name":"Одеса","label":"м. Одеса","lng":30.7233095,"lat":46.482526,"district":"Одеський р-н","state":"Одеська обл."},{"id":6,"name":"Херсон","label":"м. Херсон","lng":32.616867,"lat":46.635417,"district":"Херсонський р-н","state":"Херсонська обл."},{"id":7,"name":"Дніпро","label":"м. Дніпро","lng":35.046183,"lat":48.464717,"district":"Дніпровський р-н","state":"Дніпропетровська обл."},{"id":8,"name":"Харків","label":"м. Харків","lng":36.230383,"lat":49.9935,"district":"Харківський р-н","state":"Харківська обл."},{"id":9,"name":"Житомир","label":"м. Житомир","lng":28.6586669,"lat":50.25465,"district":"Житомирський р-н","state":"Житомирська обл."},{"id":10,"name":"Вінниця","label":"м. Вінниця","lng":28.4682169,"lat":49.233083,"district":"Вінницький р-н","state":"Вінницька обл."},{"id":11,"name":"Ужгород","label":"м. Ужгород","lng":22.287883,"lat":48.6208,"district":"Ужгородський р-н","state":"Закарпатська обл."},{"id":12,"name":"Черкаси","label":"м. Черкаси","lng":32.059767,"lat":49.444433,"district":"Черкаський р-н","state":"Черкаська обл."},{"id":13,"name":"Полтава","label":"м. Полтава","lng":34.5514169,"lat":49.58826699999999,"district":"Полтавський р-н","state":"Полтавська обл."},{"id":14,"name":"Донецьк","label":"м. Донецьк","lng":37.80222,"lat":48.02278,"district":"Донецький р-н","state":"Донецька обл."},{"id":15,"name":"Чернівці","label":"м. Чернівці","lng":25.935217,"lat":48.291683,"district":"Чернівецький р-н","state":"Чернівецька обл."},{"id":16,"name":"Луганськ","label":"м. Луганськ","lng":39.307815,"lat":48.574041,"district":"Луганський р-н","state":"Луганська обл."},{"id":17,"name":"Миколаїв","label":"м. Миколаїв","lng":31.99458289999999,"lat":46.975033,"district":"Миколаївський р-н","state":"Миколаївська обл."},{"id":18,"name":"Чернігів","label":"м. Чернігів","lng":31.28934989999999,"lat":51.4982,"district":"Чернігівський р-н","state":"Чернігівська обл."},{"id":19,"name":"Тернопіль","label":"м. Тернопіль","lng":25.594767,"lat":49.553517,"district":"Тернопільський р-н","state":"Тернопільська обл."},{"id":20,"name":"Запоріжжя","label":"м. Запоріжжя","lng":35.139567,"lat":47.8388,"district":"Запорізький р-н","state":"Запорізька обл."},{"id":21,"name":"Сімферополь","label":"м. Сімферополь","lng":34.102417,"lat":44.952117,"district":"Сімферопольський р-н","state":"АР Крим"},{"id":22,"name":"Севастополь","label":"м. Севастополь","lng":33.5224,"lat":44.5888,"district":"","state":""},{"id":23,"name":"Хмельницький","label":"м. Хмельницький","lng":26.9871331,"lat":49.422983,"district":"Хмельницький р-н","state":"Хмельницька обл."},{"id":24,"name":"Кропивницький","label":"м. Кропивницький","lng":32.262317,"lat":48.50793300000001,"district":"Кропивницький р-н","state":"Кіровоградська обл."},{"id":25,"name":"Івано-Франківськ","label":"м. Івано-Франківськ","lng":24.711117,"lat":48.922633,"district":"Івано-Франківський р-н","state":"Івано-Франківська обл."},{"id":26,"name":"Ялта","label":"м. Ялта Ялтинський р-н АР Крим","lng":34.1532687,"lat":44.4909462,"district":"Ялтинський р-н","state":"АР Крим"},{"id":27,"name":"Прип’ять","label":"м. Прип’ять undefined undefined","lng":30.0542331,"lat":51.40450320000001},{"id":28,"name":"Керч","label":"м. Керч Керченський р-н АР Крим","lng":36.468293,"lat":45.357314,"district":"Керченський р-н","state":"АР Крим"},{"id":29,"name":"Алупка","label":"м. Алупка Ялтинський р-н АР Крим","lng":34.0472685,"lat":44.4209688,"district":"Ялтинський р-н","state":"АР Крим"},{"id":30,"name":"Чорнобиль","label":"м. Чорнобиль undefined undefined","lng":30.2218992,"lat":51.2763027},{"id":31,"name":"Алушта","label":"м. Алушта Ялтинський р-н АР Крим","lng":34.41005,"lat":44.67638300000001,"district":"Ялтинський р-н","state":"АР Крим"},{"id":32,"name":"Южне","label":"м. Южне Одеський р-н Одеська обл.","lng":31.1000648,"lat":46.6240213,"district":"Одеський р-н","state":"Одеська обл."},{"id":33,"name":"Судак","label":"м. Судак Феодосійський р-н АР Крим","lng":34.976183,"lat":44.85046699999999,"district":"Феодосійський р-н","state":"АР Крим"},{"id":34,"name":"Щолкіне","label":"м. Щолкіне Керченський р-н АР Крим","lng":35.8206159,"lat":45.42259079999999,"district":"Керченський р-н","state":"АР Крим"},{"id":35,"name":"Саки","label":"м. Саки Євпаторійський р-н АР Крим","lng":33.5941067,"lat":45.1310529,"district":"Євпаторійський р-н","state":"АР Крим"},{"id":36,"name":"Джанкой","label":"м. Джанкой Джанкойський р-н АР Крим","lng":34.3874785,"lat":45.7089869,"district":"Джанкойський р-н","state":"АР Крим"},{"id":37,"name":"Буча","label":"м. Буча Бучанський р-н Київська обл.","lng":30.213517,"lat":50.55333299999999,"district":"Бучанський р-н","state":"Київська обл."},{"id":38,"name":"Рожище","label":"м. Рожище Луцький р-н Волинська обл.","lng":25.2652371,"lat":50.9156638,"district":"Луцький р-н","state":"Волинська обл."},{"id":39,"name":"Яни Капу","label":"м. Яни Капу Перекопський р-н АР Крим","lng":33.7950771,"lat":45.9521978,"district":"Перекопський р-н","state":"АР Крим"},{"id":40,"name":"Армянськ","label":"м. Армянськ Перекопський р-н АР Крим","lng":33.6876018,"lat":46.1140519,"district":"Перекопський р-н","state":"АР Крим"},{"id":41,"name":"Ворожба","label":"м. Ворожба Сумський р-н Сумська обл.","lng":34.2327186,"lat":51.1657844,"district":"Сумський р-н","state":"Сумська обл."},{"id":42,"name":"Ромни","label":"м. Ромни Роменський р-н Сумська обл.","lng":33.4809526,"lat":50.7415087,"district":"Роменський р-н","state":"Сумська обл."},{"id":43,"name":"Лебедин","label":"м. Лебедин Сумський р-н Сумська обл.","lng":34.4904643,"lat":50.5837638,"district":"Сумський р-н","state":"Сумська обл."},{"id":44,"name":"Умань","label":"м. Умань Уманський р-н Черкаська обл.","lng":30.2214499,"lat":48.74939269999999,"district":"Уманський р-н","state":"Черкаська обл."},{"id":45,"name":"Феодосія","label":"м. Феодосія Феодосійський р-н АР Крим","lng":35.382433,"lat":45.031933,"district":"Феодосійський р-н","state":"АР Крим"},{"id":46,"name":"Рені","label":"м. Рені Ізмаїльський р-н Одеська обл.","lng":28.2888529,"lat":45.457057,"district":"Ізмаїльський р-н","state":"Одеська обл."},{"id":47,"name":"Зугрес","label":"м. Зугрес Донецький р-н Донецька обл.","lng":38.2613859,"lat":48.0215476,"district":"Донецький р-н","state":"Донецька обл."},{"id":48,"name":"Горохів","label":"м. Горохів Луцький р-н Волинська обл.","lng":24.7629614,"lat":50.4965033,"district":"Луцький р-н","state":"Волинська обл."},{"id":49,"name":"Теплодар","label":"м. Теплодар Одеський р-н Одеська обл.","lng":30.3272329,"lat":46.5050729,"district":"Одеський р-н","state":"Одеська обл."},{"id":50,"name":"Балта","label":"м. Балта Подільський р-н Одеська обл.","lng":29.62017,"lat":47.93644,"district":"Подільський р-н","state":"Одеська обл."},{"id":51,"name":"Ківерці","label":"м. Ківерці Луцький р-н Волинська обл.","lng":25.4566978,"lat":50.8323221,"district":"Луцький р-н","state":"Волинська обл."},{"id":52,"name":"Бар","label":"м. Бар Жмеринський р-н Вінницька обл.","lng":27.6814809,"lat":49.0778949,"district":"Жмеринський р-н","state":"Вінницька обл."},{"id":53,"name":"Ізюм","label":"м. Ізюм Ізюмський р-н Харківська обл.","lng":37.2784125,"lat":49.1913721,"district":"Ізюмський р-н","state":"Харківська обл."},{"id":54,"name":"Біляївка","label":"м. Біляївка Одеський р-н Одеська обл.","lng":30.2014161,"lat":46.4826109,"district":"Одеський р-н","state":"Одеська обл."},{"id":55,"name":"Стрий","label":"м. Стрий Стрийський р-н Львівська обл.","lng":23.8431343,"lat":49.2656076,"district":"Стрийський р-н","state":"Львівська обл."},{"id":56,"name":"Арциз","label":"м. Арциз Болградський р-н Одеська обл.","lng":29.4235548,"lat":45.9788437,"district":"Болградський р-н","state":"Одеська обл."},{"id":57,"name":"Кілія","label":"м. Кілія Ізмаїльський р-н Одеська обл.","lng":29.2480308,"lat":45.4650742,"district":"Ізмаїльський р-н","state":"Одеська обл."},{"id":58,"name":"Канів","label":"м. Канів Черкаський р-н Черкаська обл.","lng":31.4697,"lat":49.751033,"district":"Черкаський р-н","state":"Черкаська обл."},{"id":59,"name":"Вараш","label":"м. Вараш Вараський р-н Рівненська обл.","lng":25.8490867,"lat":51.34365529999999,"district":"Вараський р-н","state":"Рівненська обл."},{"id":60,"name":"Моспине","label":"м. Моспине Донецький р-н Донецька обл.","lng":38.0671601,"lat":47.8748302,"district":"Донецький р-н","state":"Донецька обл."},{"id":61,"name":"Бунге","label":"м. Бунге Горлівський р-н Донецька обл.","lng":38.2730863,"lat":48.2231371,"district":"Горлівський р-н","state":"Донецька обл."},{"id":62,"name":"Охтирка","label":"м. Охтирка Охтирський р-н Сумська обл.","lng":34.9005644,"lat":50.3150962,"district":"Охтирський р-н","state":"Сумська обл."},{"id":63,"name":"Сколе","label":"м. Сколе Стрийський р-н Львівська обл.","lng":23.5129163,"lat":49.0401779,"district":"Стрийський р-н","state":"Львівська обл."},{"id":64,"name":"Ірпінь","label":"м. Ірпінь Бучанський р-н Київська обл.","lng":30.239783,"lat":50.51875,"district":"Бучанський р-н","state":"Київська обл."},{"id":65,"name":"Білогірськ","label":"м. Білогірськ Білогірський р-н АР Крим","lng":34.605095,"lat":45.0577954,"district":"Білогірський р-н","state":"АР Крим"},{"id":66,"name":"Білопілля","label":"м. Білопілля Сумський р-н Сумська обл.","lng":34.3175225,"lat":51.14940199999999,"district":"Сумський р-н","state":"Сумська обл."},{"id":67,"name":"Жашків","label":"м. Жашків Уманський р-н Черкаська обл.","lng":30.10178999999999,"lat":49.2462205,"district":"Уманський р-н","state":"Черкаська обл."},{"id":68,"name":"Сміла","label":"м. Сміла Черкаський р-н Черкаська обл.","lng":31.8522329,"lat":49.227717,"district":"Черкаський р-н","state":"Черкаська обл."},{"id":69,"name":"Кодима","label":"м. Кодима Подільський р-н Одеська обл.","lng":29.124263,"lat":48.0999765,"district":"Подільський р-н","state":"Одеська обл."},{"id":70,"name":"Глухів","label":"м. Глухів Шосткинський р-н Сумська обл.","lng":33.9078925,"lat":51.6708844,"district":"Шосткинський р-н","state":"Сумська обл."},{"id":71,"name":"Сніжне","label":"м. Сніжне Горлівський р-н Донецька обл.","lng":38.7656121,"lat":48.0282789,"district":"Горлівський р-н","state":"Донецька обл."},{"id":72,"name":"Макіївка","label":"м. Макіївка Донецький р-н Донецька обл.","lng":37.9666901,"lat":48.0459557,"district":"Донецький р-н","state":"Донецька обл."},{"id":73,"name":"Хуст","label":"м. Хуст Хустський р-н Закарпатська обл.","lng":23.2972476,"lat":48.17346329999999,"district":"Хустський р-н","state":"Закарпатська обл."},{"id":74,"name":"Ізмаїл","label":"м. Ізмаїл Ізмаїльський р-н Одеська обл.","lng":28.8501919,"lat":45.3501944,"district":"Ізмаїльський р-н","state":"Одеська обл."},{"id":75,"name":"Фастів","label":"м. Фастів Фастівський р-н Київська обл.","lng":29.90496839999999,"lat":50.0637682,"district":"Фастівський р-н","state":"Київська обл."},{"id":76,"name":"Кипуче","label":"м. Кипуче Алчевський р-н Луганська обл.","lng":38.7168831,"lat":48.4422972,"district":"Алчевський р-н","state":"Луганська обл."},{"id":77,"name":"Шостка","label":"м. Шостка Шосткинський р-н Сумська обл.","lng":33.4966152,"lat":51.8757044,"district":"Шосткинський р-н","state":"Сумська обл."},{"id":78,"name":"Хирів","label":"м. Хирів Самбірський р-н Львівська обл.","lng":22.8520262,"lat":49.53336059999999,"district":"Самбірський р-н","state":"Львівська обл."},{"id":79,"name":"Моршин","label":"м. Моршин Стрийський р-н Львівська обл.","lng":23.8674568,"lat":49.1557117,"district":"Стрийський р-н","state":"Львівська обл."},{"id":80,"name":"Ржищів","label":"м. Ржищів Обухівський р-н Київська обл.","lng":31.0432748,"lat":49.9657673,"district":"Обухівський р-н","state":"Київська обл."},{"id":81,"name":"Вишневе","label":"м. Вишневе Бучанський р-н Київська обл.","lng":30.368267,"lat":50.3919,"district":"Бучанський р-н","state":"Київська обл."},{"id":82,"name":"Гірник","label":"м. Гірник Покровський р-н Донецька обл.","lng":37.3703446,"lat":48.0535517,"district":"Покровський р-н","state":"Донецька обл."},{"id":83,"name":"Бахмут","label":"м. Бахмут Бахмутський р-н Донецька обл.","lng":37.9980367,"lat":48.5986674,"district":"Бахмутський р-н","state":"Донецька обл."},{"id":84,"name":"Інкерман","label":"м. Інкерман Бахчисарайський р-н АР Крим","lng":33.6059169,"lat":44.6186368,"district":"Бахчисарайський р-н","state":"АР Крим"},{"id":85,"name":"Обухів","label":"м. Обухів Обухівський р-н Київська обл.","lng":30.6267497,"lat":50.1101943,"district":"Обухівський р-н","state":"Київська обл."},{"id":86,"name":"Харцизьк","label":"м. Харцизьк Донецький р-н Донецька обл.","lng":38.1393965,"lat":48.043204,"district":"Донецький р-н","state":"Донецька обл."},{"id":87,"name":"Ірміно","label":"м. Ірміно Алчевський р-н Луганська обл.","lng":38.5920825,"lat":48.600487,"district":"Алчевський р-н","state":"Луганська обл."},{"id":88,"name":"Бібрка","label":"м. Бібрка Львівський р-н Львівська обл.","lng":24.2948622,"lat":49.6376889,"district":"Львівський р-н","state":"Львівська обл."},{"id":89,"name":"Дубно","label":"м. Дубно Дубенський р-н Рівненська обл.","lng":25.7590674,"lat":50.4009139,"district":"Дубенський р-н","state":"Рівненська обл."},{"id":90,"name":"Турка","label":"м. Турка Самбірський р-н Львівська обл.","lng":23.0280055,"lat":49.15405699999999,"district":"Самбірський р-н","state":"Львівська обл."},{"id":91,"name":"Рудки","label":"м. Рудки Самбірський р-н Львівська обл.","lng":23.486531,"lat":49.6522215,"district":"Самбірський р-н","state":"Львівська обл."},{"id":92,"name":"Жовква","label":"м. Жовква Львівський р-н Львівська обл.","lng":23.9736471,"lat":50.0588756,"district":"Львівський р-н","state":"Львівська обл."},{"id":93,"name":"Боярка","label":"м. Боярка Фастівський р-н Київська обл.","lng":30.298167,"lat":50.317117,"district":"Фастівський р-н","state":"Київська обл."},{"id":94,"name":"Дружба","label":"м. Дружба Шосткинський р-н Сумська обл.","lng":33.9293828,"lat":52.04024520000001,"district":"Шосткинський р-н","state":"Сумська обл."},{"id":95,"name":"Буринь","label":"м. Буринь Конотопський р-н Сумська обл.","lng":33.8288109,"lat":51.1954709,"district":"Конотопський р-н","state":"Сумська обл."},{"id":96,"name":"Ананьїв","label":"м. Ананьїв Подільський р-н Одеська обл.","lng":29.9913264,"lat":47.714758,"district":"Подільський р-н","state":"Одеська обл."},{"id":97,"name":"Лубни","label":"м. Лубни Лубенський р-н Полтавська обл.","lng":32.9998088,"lat":50.0168687,"district":"Лубенський р-н","state":"Полтавська обл."},{"id":98,"name":"Хорол","label":"м. Хорол Лубенський р-н Полтавська обл.","lng":33.2740772,"lat":49.78215429999999,"district":"Лубенський р-н","state":"Полтавська обл."},{"id":99,"name":"Старий Крим","label":"м. Старий Крим Феодосійський р-н АР Крим","lng":35.0863723,"lat":45.0274234,"district":"Феодосійський р-н","state":"АР Крим"},{"id":100,"name":"Ясинувата","label":"м. Ясинувата Донецький р-н Донецька обл.","lng":37.87659439999999,"lat":48.1221425,"district":"Донецький р-н","state":"Донецька обл."},{"id":101,"name":"Алмазна","label":"м. Алмазна Алчевський р-н Луганська обл.","lng":38.5785068,"lat":48.5236242,"district":"Алчевський р-н","state":"Луганська обл."},{"id":102,"name":"Чорноморськ","label":"м. Чорноморськ Одеський р-н Одеська обл.","lng":30.6480855,"lat":46.2952236,"district":"Одеський р-н","state":"Одеська обл."},{"id":103,"name":"Вилкове","label":"м. Вилкове Ізмаїльський р-н Одеська обл.","lng":29.5961736,"lat":45.40029939999999,"district":"Ізмаїльський р-н","state":"Одеська обл."},{"id":104,"name":"Соледар","label":"м. Соледар Бахмутський р-н Донецька обл.","lng":38.0627964,"lat":48.6948731,"district":"Бахмутський р-н","state":"Донецька обл."},{"id":105,"name":"Конотоп","label":"м. Конотоп Конотопський р-н Сумська обл.","lng":33.2050521,"lat":51.2409432,"district":"Конотопський р-н","state":"Сумська обл."},{"id":106,"name":"Ковель","label":"м. Ковель Ковельський р-н Волинська обл.","lng":24.708894,"lat":51.2120538,"district":"Ковельський р-н","state":"Волинська обл."},{"id":107,"name":"Чигирин","label":"м. Чигирин Черкаський р-н Черкаська обл.","lng":32.6617808,"lat":49.0730544,"district":"Черкаський р-н","state":"Черкаська обл."},{"id":108,"name":"Сарни","label":"м. Сарни Сарненський р-н Рівненська обл.","lng":26.601983,"lat":51.3456549,"district":"Сарненський р-н","state":"Рівненська обл."},{"id":109,"name":"Гайсин","label":"м. Гайсин Гайсинський р-н Вінницька обл.","lng":29.3812035,"lat":48.8139473,"district":"Гайсинський р-н","state":"Вінницька обл."},{"id":110,"name":"Іллінці","label":"м. Іллінці Вінницький р-н Вінницька обл.","lng":29.2092738,"lat":49.1040007,"district":"Вінницький р-н","state":"Вінницька обл."},{"id":111,"name":"Немирів","label":"м. Немирів Вінницький р-н Вінницька обл.","lng":28.8474081,"lat":48.9749521,"district":"Вінницький р-н","state":"Вінницька обл."},{"id":112,"name":"Гнівань","label":"м. Гнівань Вінницький р-н Вінницька обл.","lng":28.348201,"lat":49.0877258,"district":"Вінницький р-н","state":"Вінницька обл."},{"id":113,"name":"Жидачів","label":"м. Жидачів Стрийський р-н Львівська обл.","lng":24.1421826,"lat":49.3853385,"district":"Стрийський р-н","state":"Львівська обл."},{"id":114,"name":"Ходорів","label":"м. Ходорів Стрийський р-н Львівська обл.","lng":24.3079782,"lat":49.4077736,"district":"Стрийський р-н","state":"Львівська обл."},{"id":115,"name":"Самбір","label":"м. Самбір Самбірський р-н Львівська обл.","lng":23.2065501,"lat":49.5207147,"district":"Самбірський р-н","state":"Львівська обл."},{"id":116,"name":"Дубляни","label":"м. Дубляни Львівський р-н Львівська обл.","lng":24.0900525,"lat":49.9054766,"district":"Львівський р-н","state":"Львівська обл."},{"id":117,"name":"Комарно","label":"м. Комарно Львівський р-н Львівська обл.","lng":23.6955367,"lat":49.6287673,"district":"Львівський р-н","state":"Львівська обл."},{"id":118,"name":"Городок","label":"м. Городок Львівський р-н Львівська обл.","lng":23.6611306,"lat":49.7821352,"district":"Львівський р-н","state":"Львівська обл."},{"id":119,"name":"Глиняни","label":"м. Глиняни Львівський р-н Львівська обл.","lng":24.5159493,"lat":49.82156819999999,"district":"Львівський р-н","state":"Львівська обл."},{"id":120,"name":"Броди","label":"м. Броди Золочівський р-н Львівська обл.","lng":25.1478942,"lat":50.0788069,"district":"Золочівський р-н","state":"Львівська обл."},{"id":121,"name":"Лиман","label":"м. Лиман Краматорський р-н Донецька обл.","lng":37.8049964,"lat":48.9897585,"district":"Краматорський р-н","state":"Донецька обл."},{"id":122,"name":"Іловайськ","label":"м. Іловайськ Донецький р-н Донецька обл.","lng":38.1957157,"lat":47.9257046,"district":"Донецький р-н","state":"Донецька обл."},{"id":123,"name":"Залізне","label":"м. Залізне Бахмутський р-н Донецька обл.","lng":37.8977049,"lat":48.3692563,"district":"Бахмутський р-н","state":"Донецька обл."},{"id":124,"name":"Євпаторія ","label":"м. Євпаторія  Євпаторійський р-н АР Крим","lng":33.366867,"lat":45.19045,"district":"Євпаторійський р-н","state":"АР Крим"},{"id":125,"name":"Винники","label":"м. Винники Львівський р-н Львівська обл.","lng":24.1435555,"lat":49.8122096,"district":"Львівський р-н","state":"Львівська обл."},{"id":126,"name":"Бровари","label":"м. Бровари Броварський р-н Київська обл.","lng":30.7909,"lat":50.511083,"district":"Броварський р-н","state":"Київська обл."},{"id":127,"name":"Зміїв","label":"м. Зміїв Чугуївський р-н Харківська обл.","lng":36.3595476,"lat":49.6944064,"district":"Чугуївський р-н","state":"Харківська обл."},{"id":128,"name":"Болград","label":"м. Болград Болградський р-н Одеська обл.","lng":28.6143107,"lat":45.6838431,"district":"Болградський р-н","state":"Одеська обл."},{"id":129,"name":"Буськ","label":"м. Буськ Золочівський р-н Львівська обл.","lng":24.6094605,"lat":49.9693586,"district":"Золочівський р-н","state":"Львівська обл."},{"id":130,"name":"Торецьк","label":"м. Торецьк Бахмутський р-н Донецька обл.","lng":37.855245,"lat":48.3972873,"district":"Бахмутський р-н","state":"Донецька обл."},{"id":131,"name":"Берестечко","label":"м. Берестечко Луцький р-н Волинська обл.","lng":25.1107867,"lat":50.3633974,"district":"Луцький р-н","state":"Волинська обл."},{"id":132,"name":"Лозова","label":"м. Лозова Лозівський р-н Харківська обл.","lng":36.308001,"lat":48.8902362,"district":"Лозівський р-н","state":"Харківська обл."},{"id":133,"name":"Ічня","label":"м. Ічня Прилуцький р-н Чернігівська обл.","lng":32.3974889,"lat":50.8579559,"district":"Прилуцький р-н","state":"Чернігівська обл."},{"id":134,"name":"Путивль","label":"м. Путивль Конотопський р-н Сумська обл.","lng":33.8646834,"lat":51.3345739,"district":"Конотопський р-н","state":"Сумська обл."},{"id":135,"name":"Яворів","label":"м. Яворів Яворівський р-н Львівська обл.","lng":23.3885219,"lat":49.93808850000001,"district":"Яворівський р-н","state":"Львівська обл."},{"id":136,"name":"Курахове","label":"м. Курахове Покровський р-н Донецька обл.","lng":37.2906965,"lat":47.9865822,"district":"Покровський р-н","state":"Донецька обл."},{"id":137,"name":"Селидове","label":"м. Селидове Покровський р-н Донецька обл.","lng":37.3018921,"lat":48.15015,"district":"Покровський р-н","state":"Донецька обл."},{"id":138,"name":"Миколаїв","label":"м. Миколаїв Стрийський р-н Львівська обл.","lng":23.9757792,"lat":49.5271733,"district":"Стрийський р-н","state":"Львівська обл."},{"id":139,"name":"Подільськ","label":"м. Подільськ Подільський р-н Одеська обл.","lng":29.5339155,"lat":47.7585809,"district":"Подільський р-н","state":"Одеська обл."},{"id":140,"name":"Ніжин","label":"м. Ніжин Ніжинський р-н Чернігівська обл.","lng":31.8880994,"lat":51.0377956,"district":"Ніжинський р-н","state":"Чернігівська обл."},{"id":141,"name":"Олешки","label":"м. Олешки Херсонський р-н Херсонська обл.","lng":32.70726750000001,"lat":46.61993210000001,"district":"Херсонський р-н","state":"Херсонська обл."},{"id":142,"name":"Балаклія","label":"м. Балаклія Ізюмський р-н Харківська обл.","lng":36.8584805,"lat":49.4643925,"district":"Ізюмський р-н","state":"Харківська обл."},{"id":143,"name":"Острог","label":"м. Острог Рівненський р-н Рівненська обл.","lng":26.521108,"lat":50.3279292,"district":"Рівненський р-н","state":"Рівненська обл."},{"id":144,"name":"Корець","label":"м. Корець Рівненський р-н Рівненська обл.","lng":27.1614453,"lat":50.6227649,"district":"Рівненський р-н","state":"Рівненська обл."},{"id":145,"name":"Бершадь","label":"м. Бершадь Гайсинський р-н Вінницька обл.","lng":29.5331654,"lat":48.368954,"district":"Гайсинський р-н","state":"Вінницька обл."},{"id":146,"name":"Липовець","label":"м. Липовець Вінницький р-н Вінницька обл.","lng":29.0492866,"lat":49.2271228,"district":"Вінницький р-н","state":"Вінницька обл."},{"id":147,"name":"Тячів","label":"м. Тячів Тячівський р-н Закарпатська обл.","lng":23.572467,"lat":48.017152,"district":"Тячівський р-н","state":"Закарпатська обл."},{"id":148,"name":"Рахів","label":"м. Рахів Рахівський р-н Закарпатська обл.","lng":24.2128943,"lat":48.0545898,"district":"Рахівський р-н","state":"Закарпатська обл."},{"id":149,"name":"Мерефа","label":"м. Мерефа Харківський р-н Харківська обл.","lng":36.0503448,"lat":49.8060262,"district":"Харківський р-н","state":"Харківська обл."},{"id":150,"name":"Алчевськ","label":"м. Алчевськ Алчевський р-н Луганська обл.","lng":38.8134406,"lat":48.4713393,"district":"Алчевський р-н","state":"Луганська обл."},{"id":151,"name":"Кадіївка","label":"м. Кадіївка Алчевський р-н Луганська обл.","lng":38.6487184,"lat":48.560407,"district":"Алчевський р-н","state":"Луганська обл."},{"id":152,"name":"Українка","label":"м. Українка Обухівський р-н Київська обл.","lng":30.7373521,"lat":50.1381207,"district":"Обухівський р-н","state":"Київська обл."},{"id":153,"name":"Лутугине","label":"м. Лутугине Луганський р-н Луганська обл.","lng":39.2015308,"lat":48.4005956,"district":"Луганський р-н","state":"Луганська обл."},{"id":154,"name":"Узин","label":"м. Узин Білоцерківський р-н Київська обл.","lng":30.4053369,"lat":49.82478829999999,"district":"Білоцерківський р-н","state":"Київська обл."},{"id":155,"name":"Іршава","label":"м. Іршава Хустський р-н Закарпатська обл.","lng":23.041894,"lat":48.3117809,"district":"Хустський р-н","state":"Закарпатська обл."},{"id":156,"name":"Березань","label":"м. Березань Броварський р-н Київська обл.","lng":31.46433,"lat":50.3070969,"district":"Броварський р-н","state":"Київська обл."},{"id":157,"name":"Сіверськ","label":"м. Сіверськ Бахмутський р-н Донецька обл.","lng":38.1047909,"lat":48.873935,"district":"Бахмутський р-н","state":"Донецька обл."},{"id":158,"name":"Жданівка","label":"м. Жданівка Горлівський р-н Донецька обл.","lng":38.2540176,"lat":48.1462985,"district":"Горлівський р-н","state":"Донецька обл."},{"id":159,"name":"Чоп","label":"м. Чоп Ужгородський р-н Закарпатська обл.","lng":22.2101042,"lat":48.4340432,"district":"Ужгородський р-н","state":"Закарпатська обл."},{"id":160,"name":"Бахчисарай","label":"м. Бахчисарай Бахчисарайський р-н АР Крим","lng":33.8615643,"lat":44.746091,"district":"Бахчисарайський р-н","state":"АР Крим"},{"id":161,"name":"Зоринськ","label":"м. Зоринськ Алчевський р-н Луганська обл.","lng":38.6204799,"lat":48.4131636,"district":"Алчевський р-н","state":"Луганська обл."},{"id":162,"name":"Часів Яр","label":"м. Часів Яр Бахмутський р-н Донецька обл.","lng":37.8373367,"lat":48.5873911,"district":"Бахмутський р-н","state":"Донецька обл."},{"id":163,"name":"Чугуїв","label":"м. Чугуїв Чугуївський р-н Харківська обл.","lng":36.6813123,"lat":49.8363158,"district":"Чугуївський р-н","state":"Харківська обл."},{"id":164,"name":"Сватове","label":"м. Сватове Сватівський р-н Луганська обл.","lng":38.156889,"lat":49.4154809,"district":"Сватівський р-н","state":"Луганська обл."},{"id":165,"name":"Авдіївка","label":"м. Авдіївка Покровський р-н Донецька обл.","lng":37.7491336,"lat":48.136596,"district":"Покровський р-н","state":"Донецька обл."},{"id":166,"name":"Богуслав","label":"м. Богуслав Обухівський р-н Київська обл.","lng":30.8772055,"lat":49.5405738,"district":"Обухівський р-н","state":"Київська обл."},{"id":167,"name":"Ладижин","label":"м. Ладижин Гайсинський р-н Вінницька обл.","lng":29.2476275,"lat":48.6838051,"district":"Гайсинський р-н","state":"Вінницька обл."},{"id":168,"name":"Кам’янка","label":"м. Кам’янка Черкаський р-н Черкаська обл.","lng":32.1150933,"lat":49.0306474,"district":"Черкаський р-н","state":"Черкаська обл."},{"id":169,"name":"Кагарлик","label":"м. Кагарлик Обухівський р-н Київська обл.","lng":30.8192399,"lat":49.8620646,"district":"Обухівський р-н","state":"Київська обл."},{"id":170,"name":"Білицьке","label":"м. Білицьке Покровський р-н Донецька обл.","lng":37.1870814,"lat":48.4055242,"district":"Покровський р-н","state":"Донецька обл."},{"id":171,"name":"Любомль","label":"м. Любомль Ковельський р-н Волинська обл.","lng":24.0364394,"lat":51.2329872,"district":"Ковельський р-н","state":"Волинська обл."},{"id":172,"name":"Каховка","label":"м. Каховка Каховський р-н Херсонська обл.","lng":33.4817825,"lat":46.8054626,"district":"Каховський р-н","state":"Херсонська обл."},{"id":173,"name":"Мар’їнка","label":"м. Мар’їнка Покровський р-н Донецька обл.","lng":37.5040301,"lat":47.9422861,"district":"Покровський р-н","state":"Донецька обл."},{"id":174,"name":"Городище","label":"м. Городище Черкаський р-н Черкаська обл.","lng":31.4465327,"lat":49.2917766,"district":"Черкаський р-н","state":"Черкаська обл."},{"id":175,"name":"Пирятин","label":"м. Пирятин Лубенський р-н Полтавська обл.","lng":32.5070927,"lat":50.2394849,"district":"Лубенський р-н","state":"Полтавська обл."},{"id":176,"name":"Тростянець","label":"м. Тростянець Охтирський р-н Сумська обл.","lng":34.9654363,"lat":50.4810642,"district":"Охтирський р-н","state":"Сумська обл."},{"id":177,"name":"Оріхів","label":"м. Оріхів Пологівський р-н Запорізька обл.","lng":35.7876745,"lat":47.5658802,"district":"Пологівський р-н","state":"Запорізька обл."},{"id":178,"name":"Сорокине","label":"м. Сорокине Довжанський р-н Луганська обл.","lng":39.74300059999999,"lat":48.3000957,"district":"Довжанський р-н","state":"Луганська обл."},{"id":179,"name":"Козятин","label":"м. Козятин Хмільницький р-н Вінницька обл.","lng":28.8363647,"lat":49.7149346,"district":"Хмільницький р-н","state":"Вінницька обл."},{"id":180,"name":"Люботин","label":"м. Люботин Харківський р-н Харківська обл.","lng":35.9407539,"lat":49.9511113,"district":"Харківський р-н","state":"Харківська обл."},{"id":181,"name":"Дергачі","label":"м. Дергачі Харківський р-н Харківська обл.","lng":36.1155026,"lat":50.1097212,"district":"Харківський р-н","state":"Харківська обл."},{"id":182,"name":"Березівка","label":"м. Березівка Березівський р-н Одеська обл.","lng":30.9163475,"lat":47.20382679999999,"district":"Березівський р-н","state":"Одеська обл."},{"id":183,"name":"Пустомити","label":"м. Пустомити Львівський р-н Львівська обл.","lng":23.9055618,"lat":49.7154835,"district":"Львівський р-н","state":"Львівська обл."},{"id":184,"name":"Золочів","label":"м. Золочів Золочівський р-н Львівська обл.","lng":24.901371,"lat":49.80941,"district":"Золочівський р-н","state":"Львівська обл."},{"id":185,"name":"Стебник","label":"м. Стебник Дрогобицький р-н Львівська обл.","lng":23.5414504,"lat":49.30155000000001,"district":"Дрогобицький р-н","state":"Львівська обл."},{"id":186,"name":"Зимогір’я","label":"м. Зимогір’я Алчевський р-н Луганська обл.","lng":38.9229877,"lat":48.5864439,"district":"Алчевський р-н","state":"Луганська обл."},{"id":187,"name":"Миронівка","label":"м. Миронівка Обухівський р-н Київська обл.","lng":30.9894691,"lat":49.665033,"district":"Обухівський р-н","state":"Київська обл."},{"id":188,"name":"Васильків","label":"м. Васильків Обухівський р-н Київська обл.","lng":30.3196385,"lat":50.1770891,"district":"Обухівський р-н","state":"Київська обл."},{"id":189,"name":"Токмак","label":"м. Токмак Пологівський р-н Запорізька обл.","lng":35.7098365,"lat":47.2464085,"district":"Пологівський р-н","state":"Запорізька обл."},{"id":190,"name":"Мирноград","label":"м. Мирноград Покровський р-н Донецька обл.","lng":37.2700036,"lat":48.2962118,"district":"Покровський р-н","state":"Донецька обл."},{"id":191,"name":"Шахтарськ","label":"м. Шахтарськ Горлівський р-н Донецька обл.","lng":38.45053,"lat":48.04867530000001,"district":"Горлівський р-н","state":"Донецька обл."},{"id":192,"name":"Гадяч","label":"м. Гадяч Миргородський р-н Полтавська обл.","lng":33.9950534,"lat":50.3701299,"district":"Миргородський р-н","state":"Полтавська обл."},{"id":193,"name":"Погребище","label":"м. Погребище Вінницький р-н Вінницька обл.","lng":29.268579,"lat":49.4863064,"district":"Вінницький р-н","state":"Вінницька обл."},{"id":194,"name":"Тульчин","label":"м. Тульчин Тульчинський р-н Вінницька обл.","lng":28.8563795,"lat":48.6739771,"district":"Тульчинський р-н","state":"Вінницька обл."},{"id":195,"name":"Березне","label":"м. Березне Рівненський р-н Рівненська обл.","lng":26.750679,"lat":50.9996233,"district":"Рівненський р-н","state":"Рівненська обл."},{"id":196,"name":"Шаргород","label":"м. Шаргород Жмеринський р-н Вінницька обл.","lng":28.0690462,"lat":48.7628865,"district":"Жмеринський р-н","state":"Вінницька обл."},{"id":197,"name":"Вижниця","label":"м. Вижниця Вижницький р-н Чернівецька обл.","lng":25.1973796,"lat":48.2521582,"district":"Вижницький р-н","state":"Чернівецька обл."},{"id":198,"name":"Герца","label":"м. Герца Чернівецький р-н Чернівецька обл.","lng":26.2545099,"lat":48.1479286,"district":"Чернівецький р-н","state":"Чернівецька обл."},{"id":199,"name":"Яготин","label":"м. Яготин Бориспільський р-н Київська обл.","lng":31.781765,"lat":50.2568193,"district":"Бориспільський р-н","state":"Київська обл."},{"id":200,"name":"Пологи","label":"м. Пологи Пологівський р-н Запорізька обл.","lng":36.2488829,"lat":47.4747938,"district":"Пологівський р-н","state":"Запорізька обл."},{"id":201,"name":"Родинське","label":"м. Родинське Покровський р-н Донецька обл.","lng":37.2097768,"lat":48.3507226,"district":"Покровський р-н","state":"Донецька обл."},{"id":202,"name":"Вугледар","label":"м. Вугледар Волноваський р-н Донецька обл.","lng":37.2490235,"lat":47.779793,"district":"Волноваський р-н","state":"Донецька обл."},{"id":203,"name":"Чистякове","label":"м. Чистякове Горлівський р-н Донецька обл.","lng":38.6545257,"lat":48.0201627,"district":"Горлівський р-н","state":"Донецька обл."},{"id":204,"name":"Жмеринка","label":"м. Жмеринка Жмеринський р-н Вінницька обл.","lng":28.1085937,"lat":49.0390512,"district":"Жмеринський р-н","state":"Вінницька обл."},{"id":205,"name":"Хрестівка","label":"м. Хрестівка Горлівський р-н Донецька обл.","lng":38.3590696,"lat":48.1544677,"district":"Горлівський р-н","state":"Донецька обл."},{"id":206,"name":"Покровськ","label":"м. Покровськ Покровський р-н Донецька обл.","lng":37.1772482,"lat":48.2771086,"district":"Покровський р-н","state":"Донецька обл."},{"id":207,"name":"Амвросіївка","label":"м. Амвросіївка Донецький р-н Донецька обл.","lng":38.4885354,"lat":47.80180619999999,"district":"Донецький р-н","state":"Донецька обл."},{"id":208,"name":"Українськ","label":"м. Українськ Покровський р-н Донецька обл.","lng":37.3625487,"lat":48.0968029,"district":"Покровський р-н","state":"Донецька обл."},{"id":209,"name":"Мена","label":"м. Мена Корюківський р-н Чернігівська обл.","lng":32.2168442,"lat":51.5240113,"district":"Корюківський р-н","state":"Чернігівська обл."},{"id":210,"name":"Бахмач","label":"м. Бахмач Ніжинський р-н Чернігівська обл.","lng":32.8329917,"lat":51.1828188,"district":"Ніжинський р-н","state":"Чернігівська обл."},{"id":211,"name":"Борзна","label":"м. Борзна Ніжинський р-н Чернігівська обл.","lng":32.4227839,"lat":51.252485,"district":"Ніжинський р-н","state":"Чернігівська обл."},{"id":212,"name":"Гребінка","label":"м. Гребінка Лубенський р-н Полтавська обл.","lng":32.4522028,"lat":50.11866699999999,"district":"Лубенський р-н","state":"Полтавська обл."},{"id":213,"name":"Зіньків","label":"м. Зіньків Полтавський р-н Полтавська обл.","lng":34.3638533,"lat":50.2046322,"district":"Полтавський р-н","state":"Полтавська обл."},{"id":214,"name":"Кролевець","label":"м. Кролевець Конотопський р-н Сумська обл.","lng":33.3860497,"lat":51.5489435,"district":"Конотопський р-н","state":"Сумська обл."},{"id":215,"name":"Дебальцеве","label":"м. Дебальцеве Горлівський р-н Донецька обл.","lng":38.4062034,"lat":48.3340595,"district":"Горлівський р-н","state":"Донецька обл."},{"id":216,"name":"Дрогобич","label":"м. Дрогобич Дрогобицький р-н Львівська обл.","lng":23.5123193,"lat":49.3580116,"district":"Дрогобицький р-н","state":"Львівська обл."},{"id":217,"name":"Белз","label":"м. Белз Червоноградський р-н Львівська обл.","lng":24.0089352,"lat":50.3815209,"district":"Червоноградський р-н","state":"Львівська обл."},{"id":218,"name":"Карлівка","label":"м. Карлівка Полтавський р-н Полтавська обл.","lng":35.1200067,"lat":49.4576263,"district":"Полтавський р-н","state":"Полтавська обл."},{"id":219,"name":"Валки","label":"м. Валки Богодухівський р-н Харківська обл.","lng":35.6206178,"lat":49.8387221,"district":"Богодухівський р-н","state":"Харківська обл."},{"id":220,"name":"Радивилів","label":"м. Радивилів Дубенський р-н Рівненська обл.","lng":25.2530313,"lat":50.1285011,"district":"Дубенський р-н","state":"Рівненська обл."},{"id":221,"name":"Південне","label":"м. Південне Харківський р-н Харківська обл.","lng":36.067068,"lat":49.8794092,"district":"Харківський р-н","state":"Харківська обл."},{"id":222,"name":"Хотин","label":"м. Хотин Дністровський р-н Чернівецька обл.","lng":26.4903334,"lat":48.5097106,"district":"Дністровський р-н","state":"Чернівецька обл."},{"id":223,"name":"Вашківці","label":"м. Вашківці Вижницький р-н Чернівецька обл.","lng":25.5058522,"lat":48.3842974,"district":"Вижницький р-н","state":"Чернівецька обл."},{"id":224,"name":"Мостиська","label":"м. Мостиська Яворівський р-н Львівська обл.","lng":23.1469243,"lat":49.8026728,"district":"Яворівський р-н","state":"Львівська обл."},{"id":225,"name":"Славутич","label":"м. Славутич Вишгородський р-н Київська обл.","lng":30.7457125,"lat":51.5221889,"district":"Вишгородський р-н","state":"Київська обл."},{"id":226,"name":"Вишгород","label":"м. Вишгород Вишгородський р-н Київська обл.","lng":30.4856785,"lat":50.5831258,"district":"Вишгородський р-н","state":"Київська обл."},{"id":227,"name":"Тетіїв","label":"м. Тетіїв Білоцерківський р-н Київська обл.","lng":29.6583812,"lat":49.3663943,"district":"Білоцерківський р-н","state":"Київська обл."},{"id":228,"name":"Сквира","label":"м. Сквира Білоцерківський р-н Київська обл.","lng":29.6642903,"lat":49.7328752,"district":"Білоцерківський р-н","state":"Київська обл."},{"id":229,"name":"Малин","label":"м. Малин Коростенський р-н Житомирська обл.","lng":29.2647319,"lat":50.7680258,"district":"Коростенський р-н","state":"Житомирська обл."},{"id":230,"name":"Чуднів","label":"м. Чуднів Житомирський р-н Житомирська обл.","lng":28.1153765,"lat":50.0524287,"district":"Житомирський р-н","state":"Житомирська обл."},{"id":231,"name":"Добропілля","label":"м. Добропілля Покровський р-н Донецька обл.","lng":37.0871224,"lat":48.4691324,"district":"Покровський р-н","state":"Донецька обл."},{"id":232,"name":"Шпола","label":"м. Шпола Звенигородський р-н Черкаська обл.","lng":31.4022422,"lat":48.9969392,"district":"Звенигородський р-н","state":"Черкаська обл."},{"id":233,"name":"Волноваха","label":"м. Волноваха Волноваський р-н Донецька обл.","lng":37.4831419,"lat":47.5951141,"district":"Волноваський р-н","state":"Донецька обл."},{"id":234,"name":"Таврійськ","label":"м. Таврійськ Каховський р-н Херсонська обл.","lng":33.4216856,"lat":46.7528018,"district":"Каховський р-н","state":"Херсонська обл."},{"id":235,"name":"Барвінкове","label":"м. Барвінкове Ізюмський р-н Харківська обл.","lng":37.0181437,"lat":48.9014667,"district":"Ізюмський р-н","state":"Харківська обл."},{"id":236,"name":"Кобеляки","label":"м. Кобеляки Полтавський р-н Полтавська обл.","lng":34.1953871,"lat":49.15179269999999,"district":"Полтавський р-н","state":"Полтавська обл."},{"id":237,"name":"Носівка","label":"м. Носівка Ніжинський р-н Чернігівська обл.","lng":31.5875246,"lat":50.9374317,"district":"Ніжинський р-н","state":"Чернігівська обл."},{"id":238,"name":"Батурин","label":"м. Батурин Ніжинський р-н Чернігівська обл.","lng":32.8797802,"lat":51.34125040000001,"district":"Ніжинський р-н","state":"Чернігівська обл."},{"id":239,"name":"Монастирище","label":"м. Монастирище Уманський р-н Черкаська обл.","lng":29.7999327,"lat":48.9965372,"district":"Уманський р-н","state":"Черкаська обл."},{"id":240,"name":"Добромиль","label":"м. Добромиль Самбірський р-н Львівська обл.","lng":22.7860759,"lat":49.57389999999999,"district":"Самбірський р-н","state":"Львівська обл."},{"id":241,"name":"Борислав","label":"м. Борислав Дрогобицький р-н Львівська обл.","lng":23.4271856,"lat":49.29124729999999,"district":"Дрогобицький р-н","state":"Львівська обл."},{"id":242,"name":"Тараща","label":"м. Тараща Білоцерківський р-н Київська обл.","lng":30.4973909,"lat":49.5619951,"district":"Білоцерківський р-н","state":"Київська обл."},{"id":243,"name":"Хмільник","label":"м. Хмільник Хмільницький р-н Вінницька обл.","lng":27.9491205,"lat":49.556175,"district":"Хмільницький р-н","state":"Вінницька обл."},{"id":244,"name":"Овруч","label":"м. Овруч Коростенський р-н Житомирська обл.","lng":28.8028968,"lat":51.3268314,"district":"Коростенський р-н","state":"Житомирська обл."},{"id":245,"name":"Христинівка","label":"м. Христинівка Уманський р-н Черкаська обл.","lng":29.9738949,"lat":48.8117212,"district":"Уманський р-н","state":"Черкаська обл."},{"id":246,"name":"Прилуки","label":"м. Прилуки Прилуцький р-н Чернігівська обл.","lng":32.3875825,"lat":50.5884714,"district":"Прилуцький р-н","state":"Чернігівська обл."},{"id":247,"name":"Бучач","label":"м. Бучач Чортківський р-н Тернопільська обл.","lng":25.3817159,"lat":49.064831,"district":"Чортківський р-н","state":"Тернопільська обл."},{"id":248,"name":"Славута","label":"м. Славута Шепетівський р-н Хмельницька обл.","lng":26.8600648,"lat":50.2969058,"district":"Шепетівський р-н","state":"Хмельницька обл."},{"id":249,"name":"Нетішин","label":"м. Нетішин Шепетівський р-н Хмельницька обл.","lng":26.6500845,"lat":50.33397309999999,"district":"Шепетівський р-н","state":"Хмельницька обл."},{"id":250,"name":"Городок","label":"м. Городок Хмельницький р-н Хмельницька обл.","lng":26.5767453,"lat":49.1664842,"district":"Хмельницький р-н","state":"Хмельницька обл."},{"id":251,"name":"Здолбунів","label":"м. Здолбунів Рівненський р-н Рівненська обл.","lng":26.2566443,"lat":50.5089112,"district":"Рівненський р-н","state":"Рівненська обл."},{"id":252,"name":"Вовчанськ","label":"м. Вовчанськ Чугуївський р-н Харківська обл.","lng":36.9329429,"lat":50.284234,"district":"Чугуївський р-н","state":"Харківська обл."},{"id":253,"name":"Кіцмань","label":"м. Кіцмань Чернівецький р-н Чернівецька обл.","lng":25.7704167,"lat":48.4413013,"district":"Чернівецький р-н","state":"Чернівецька обл."},{"id":254,"name":"Угнів","label":"м. Угнів Червоноградський р-н Львівська обл.","lng":23.7519532,"lat":50.3649126,"district":"Червоноградський р-н","state":"Львівська обл."},{"id":255,"name":"Рава-Руська","label":"м. Рава-Руська Львівський р-н Львівська обл.","lng":23.6172155,"lat":50.2260935,"district":"Львівський р-н","state":"Львівська обл."},{"id":256,"name":"Приморськ","label":"м. Приморськ Бердянський р-н Запорізька обл.","lng":36.354122,"lat":46.7230781,"district":"Бердянський р-н","state":"Запорізька обл."},{"id":257,"name":"Бердянськ","label":"м. Бердянськ Бердянський р-н Запорізька обл.","lng":36.8034779,"lat":46.7737707,"district":"Бердянський р-н","state":"Запорізька обл."},{"id":258,"name":"Білозерське","label":"м. Білозерське Покровський р-н Донецька обл.","lng":37.0536232,"lat":48.5342262,"district":"Покровський р-н","state":"Донецька обл."},{"id":259,"name":"Дружківка","label":"м. Дружківка Краматорський р-н Донецька обл.","lng":37.52721870000001,"lat":48.6161912,"district":"Краматорський р-н","state":"Донецька обл."},{"id":260,"name":"Генічеськ","label":"м. Генічеськ Генічеський р-н Херсонська обл.","lng":34.8068184,"lat":46.1784329,"district":"Генічеський р-н","state":"Херсонська обл."},{"id":261,"name":"Полонне","label":"м. Полонне Шепетівський р-н Хмельницька обл.","lng":27.506767,"lat":50.1224689,"district":"Шепетівський р-н","state":"Хмельницька обл."},{"id":262,"name":"Деражня","label":"м. Деражня Хмельницький р-н Хмельницька обл.","lng":27.4321477,"lat":49.2672882,"district":"Хмельницький р-н","state":"Хмельницька обл."},{"id":263,"name":"Дубровиця","label":"м. Дубровиця Сарненський р-н Рівненська обл.","lng":26.5706453,"lat":51.5764734,"district":"Сарненський р-н","state":"Рівненська обл."},{"id":264,"name":"Костопіль","label":"м. Костопіль Рівненський р-н Рівненська обл.","lng":26.4423222,"lat":50.8790699,"district":"Рівненський р-н","state":"Рівненська обл."},{"id":265,"name":"Калинівка","label":"м. Калинівка Хмільницький р-н Вінницька обл.","lng":28.5226562,"lat":49.448552,"district":"Хмільницький р-н","state":"Вінницька обл."},{"id":266,"name":"Перемишляни","label":"м. Перемишляни Львівський р-н Львівська обл.","lng":24.5593173,"lat":49.6692136,"district":"Львівський р-н","state":"Львівська обл."},{"id":267,"name":"Золоте","label":"м. Золоте Сєвєродонецький р-н Луганська обл.","lng":38.5121584,"lat":48.6901104,"district":"Сєвєродонецький р-н","state":"Луганська обл."},{"id":268,"name":"Ізяслав","label":"м. Ізяслав Шепетівський р-н Хмельницька обл.","lng":26.8281141,"lat":50.1191124,"district":"Шепетівський р-н","state":"Хмельницька обл."},{"id":269,"name":"Перевальськ","label":"м. Перевальськ Алчевський р-н Луганська обл.","lng":38.8180128,"lat":48.4401399,"district":"Алчевський р-н","state":"Луганська обл."},{"id":270,"name":"Куп’янськ","label":"м. Куп’янськ Куп’янський р-н Харківська обл.","lng":37.6027997,"lat":49.7055574,"district":"Куп’янський р-н","state":"Харківська обл."},{"id":271,"name":"Скадовськ","label":"м. Скадовськ Скадовський р-н Херсонська обл.","lng":32.910222,"lat":46.1149247,"district":"Скадовський р-н","state":"Херсонська обл."},{"id":272,"name":"Остер","label":"м. Остер Чернігівський р-н Чернігівська обл.","lng":30.8786768,"lat":50.9486162,"district":"Чернігівський р-н","state":"Чернігівська обл."},{"id":273,"name":"Глобине","label":"м. Глобине Кременчуцький р-н Полтавська обл.","lng":33.2599968,"lat":49.3920229,"district":"Кременчуцький р-н","state":"Полтавська обл."},{"id":274,"name":"Лохвиця","label":"м. Лохвиця Миргородський р-н Полтавська обл.","lng":33.2590348,"lat":50.35887229999999,"district":"Миргородський р-н","state":"Полтавська обл."},{"id":275,"name":"Тальне","label":"м. Тальне Звенигородський р-н Черкаська обл.","lng":30.7044131,"lat":48.887593,"district":"Звенигородський р-н","state":"Черкаська обл."},{"id":276,"name":"Слов’янськ","label":"м. Слов’янськ Краматорський р-н Донецька обл.","lng":37.6058241,"lat":48.8522691,"district":"Краматорський р-н","state":"Донецька обл."},{"id":277,"name":"Світлодарськ","label":"м. Світлодарськ Бахмутський р-н Донецька обл.","lng":38.22349,"lat":48.43803,"district":"Бахмутський р-н","state":"Донецька обл."},{"id":278,"name":"Почаїв","label":"м. Почаїв Кременецький р-н Тернопільська обл.","lng":25.5072523,"lat":50.00056170000001,"district":"Кременецький р-н","state":"Тернопільська обл."},{"id":279,"name":"Калуш","label":"м. Калуш Калуський р-н Івано-Франківська обл.","lng":24.3950384,"lat":49.0414259,"district":"Калуський р-н","state":"Івано-Франківська обл."},{"id":280,"name":"Берислав","label":"м. Берислав Бериславський р-н Херсонська обл.","lng":33.4273644,"lat":46.8433183,"district":"Бериславський р-н","state":"Херсонська обл."},{"id":281,"name":"Свалява","label":"м. Свалява Мукачівський р-н Закарпатська обл.","lng":22.9948916,"lat":48.54285669999999,"district":"Мукачівський р-н","state":"Закарпатська обл."},{"id":282,"name":"Сокаль","label":"м. Сокаль Червоноградський р-н Львівська обл.","lng":24.280156,"lat":50.4863542,"district":"Червоноградський р-н","state":"Львівська обл."},{"id":283,"name":"Очаків","label":"м. Очаків Миколаївський р-н Миколаївська обл.","lng":31.5387942,"lat":46.61876669999999,"district":"Миколаївський р-н","state":"Миколаївська обл."},{"id":284,"name":"Трускавець","label":"м. Трускавець Дрогобицький р-н Львівська обл.","lng":23.5105576,"lat":49.2760303,"district":"Дрогобицький р-н","state":"Львівська обл."},{"id":285,"name":"Ровеньки","label":"м. Ровеньки Ровеньківський р-н Луганська обл.","lng":39.3699771,"lat":48.0823858,"district":"Ровеньківський р-н","state":"Луганська обл."},{"id":286,"name":"Бориспіль","label":"м. Бориспіль Бориспільський р-н Київська обл.","lng":30.95615,"lat":50.3482,"district":"Бориспільський р-н","state":"Київська обл."},{"id":287,"name":"Гуляйполе","label":"м. Гуляйполе Пологівський р-н Запорізька обл.","lng":36.2732383,"lat":47.6607145,"district":"Пологівський р-н","state":"Запорізька обл."},{"id":288,"name":"Вільнянськ","label":"м. Вільнянськ Запорізький р-н Запорізька обл.","lng":35.4328125,"lat":47.94032259999999,"district":"Запорізький р-н","state":"Запорізька обл."},{"id":289,"name":"Енергодар","label":"м. Енергодар Василівський р-н Запорізька обл.","lng":34.6341859,"lat":47.5015067,"district":"Василівський р-н","state":"Запорізька обл."},{"id":290,"name":"Перечин","label":"м. Перечин Ужгородський р-н Закарпатська обл.","lng":22.4723243,"lat":48.7359203,"district":"Ужгородський р-н","state":"Закарпатська обл."},{"id":291,"name":"Новогродівка","label":"м. Новогродівка Покровський р-н Донецька обл.","lng":37.3368211,"lat":48.2045408,"district":"Покровський р-н","state":"Донецька обл."},{"id":292,"name":"Новоазовськ","label":"м. Новоазовськ Кальміуський р-н Донецька обл.","lng":38.0670367,"lat":47.1190259,"district":"Кальміуський р-н","state":"Донецька обл."},{"id":293,"name":"Красилів","label":"м. Красилів Хмельницький р-н Хмельницька обл.","lng":26.9757217,"lat":49.64920230000001,"district":"Хмельницький р-н","state":"Хмельницька обл."},{"id":294,"name":"Миколаївка","label":"м. Миколаївка Краматорський р-н Донецька обл.","lng":37.7619191,"lat":48.8610868,"district":"Краматорський р-н","state":"Донецька обл."},{"id":295,"name":"Миргород","label":"м. Миргород Миргородський р-н Полтавська обл.","lng":33.6113889,"lat":49.9658333,"district":"Миргородський р-н","state":"Полтавська обл."},{"id":296,"name":"Докучаєвськ","label":"м. Докучаєвськ Кальміуський р-н Донецька обл.","lng":37.6772484,"lat":47.758214,"district":"Кальміуський р-н","state":"Донецька обл."},{"id":297,"name":"Гірське","label":"м. Гірське Сєвєродонецький р-н Луганська обл.","lng":38.4919701,"lat":48.7395184,"district":"Сєвєродонецький р-н","state":"Луганська обл."},{"id":298,"name":"Рубіжне","label":"м. Рубіжне Сєвєродонецький р-н Луганська обл.","lng":38.3751403,"lat":49.01612129999999,"district":"Сєвєродонецький р-н","state":"Луганська обл."},{"id":299,"name":"Новий Розділ","label":"м. Новий Розділ Стрийський р-н Львівська обл.","lng":24.1290584,"lat":49.4745036,"district":"Стрийський р-н","state":"Львівська обл."},{"id":300,"name":"Шумськ","label":"м. Шумськ Кременецький р-н Тернопільська обл.","lng":26.1149716,"lat":50.122577,"district":"Кременецький р-н","state":"Тернопільська обл."},{"id":301,"name":"Роздільна","label":"м. Роздільна Роздільнянський р-н Одеська обл.","lng":30.0749436,"lat":46.8546237,"district":"Роздільнянський р-н","state":"Одеська обл."},{"id":302,"name":"Попасна","label":"м. Попасна Сєвєродонецький р-н Луганська обл.","lng":38.3727153,"lat":48.6282422,"district":"Сєвєродонецький р-н","state":"Луганська обл."},{"id":303,"name":"Переяслав","label":"м. Переяслав Бориспільський р-н Київська обл.","lng":31.4501543,"lat":50.0715832,"district":"Бориспільський р-н","state":"Київська обл."},{"id":304,"name":"Василівка","label":"м. Василівка Василівський р-н Запорізька обл.","lng":35.2867265,"lat":47.4414731,"district":"Василівський р-н","state":"Запорізька обл."},{"id":305,"name":"Олевськ","label":"м. Олевськ Коростенський р-н Житомирська обл.","lng":27.6442211,"lat":51.22075599999999,"district":"Коростенський р-н","state":"Житомирська обл."},{"id":306,"name":"Кальміуське","label":"м. Кальміуське Кальміуський р-н Донецька обл.","lng":38.076284,"lat":47.6668709,"district":"Кальміуський р-н","state":"Донецька обл."},{"id":307,"name":"Суходільськ","label":"м. Суходільськ Довжанський р-н Луганська обл.","lng":39.7239205,"lat":48.3523068,"district":"Довжанський р-н","state":"Луганська обл."},{"id":308,"name":"Заставна","label":"м. Заставна Чернівецький р-н Чернівецька обл.","lng":25.8436802,"lat":48.525312,"district":"Чернівецький р-н","state":"Чернівецька обл."},{"id":309,"name":"Сновськ","label":"м. Сновськ Корюківський р-н Чернігівська обл.","lng":31.946738,"lat":51.8178825,"district":"Корюківський р-н","state":"Чернігівська обл."},{"id":310,"name":"Бобровиця","label":"м. Бобровиця Ніжинський р-н Чернігівська обл.","lng":31.3859435,"lat":50.7438882,"district":"Ніжинський р-н","state":"Чернігівська обл."},{"id":311,"name":"Баштанка","label":"м. Баштанка Баштанський р-н Миколаївська обл.","lng":32.4412263,"lat":47.4098736,"district":"Баштанський р-н","state":"Миколаївська обл."},{"id":312,"name":"Маріуполь","label":"м. Маріуполь Маріупольський р-н Донецька обл.","lng":37.543367,"lat":47.097133,"district":"Маріупольський р-н","state":"Донецька обл."},{"id":313,"name":"Борщів","label":"м. Борщів Чортківський р-н Тернопільська обл.","lng":26.0488939,"lat":48.80060959999999,"district":"Чортківський р-н","state":"Тернопільська обл."},{"id":314,"name":"Красногорівка","label":"м. Красногорівка Покровський р-н Донецька обл.","lng":37.5091505,"lat":48.0093421,"district":"Покровський р-н","state":"Донецька обл."},{"id":315,"name":"Косів","label":"м. Косів Косівський р-н Івано-Франківська обл.","lng":25.082229,"lat":48.3135026,"district":"Косівський р-н","state":"Івано-Франківська обл."},{"id":316,"name":"Кремінна","label":"м. Кремінна Сєвєродонецький р-н Луганська обл.","lng":38.2176555,"lat":49.04222679999999,"district":"Сєвєродонецький р-н","state":"Луганська обл."},{"id":317,"name":"Новий Буг","label":"м. Новий Буг Баштанський р-н Миколаївська обл.","lng":32.5038537,"lat":47.6968565,"district":"Баштанський р-н","state":"Миколаївська обл."},{"id":318,"name":"Долина","label":"м. Долина Калуський р-н Івано-Франківська обл.","lng":23.9892459,"lat":48.9764573,"district":"Калуський р-н","state":"Івано-Франківська обл."},{"id":319,"name":"Нова Каховка","label":"м. Нова Каховка Каховський р-н Херсонська обл.","lng":33.3678207,"lat":46.75152509999999,"district":"Каховський р-н","state":"Херсонська обл."},{"id":320,"name":"Шепетівка","label":"м. Шепетівка Шепетівський р-н Хмельницька обл.","lng":27.0559924,"lat":50.1757487,"district":"Шепетівський р-н","state":"Хмельницька обл."},{"id":321,"name":"Ватутіне","label":"м. Ватутіне Звенигородський р-н Черкаська обл.","lng":31.0539028,"lat":49.0149775,"district":"Звенигородський р-н","state":"Черкаська обл."},{"id":322,"name":"Привілля","label":"м. Привілля Сєвєродонецький р-н Луганська обл.","lng":38.29993959999999,"lat":49.00714869999999,"district":"Сєвєродонецький р-н","state":"Луганська обл."},{"id":323,"name":"Міусинськ","label":"м. Міусинськ Ровеньківський р-н Луганська обл.","lng":38.8956842,"lat":48.07825589999999,"district":"Ровеньківський р-н","state":"Луганська обл."},{"id":324,"name":"Мукачево","label":"м. Мукачево Мукачівський р-н Закарпатська обл.","lng":22.7117106,"lat":48.4493055,"district":"Мукачівський р-н","state":"Закарпатська обл."},{"id":325,"name":"Берегове","label":"м. Берегове Берегівський р-н Закарпатська обл.","lng":22.6370954,"lat":48.1971868,"district":"Берегівський р-н","state":"Закарпатська обл."},{"id":326,"name":"Радомишль","label":"м. Радомишль Житомирський р-н Житомирська обл.","lng":29.2337369,"lat":50.4965282,"district":"Житомирський р-н","state":"Житомирська обл."},{"id":327,"name":"Бердичів","label":"м. Бердичів Бердичівський р-н Житомирська обл.","lng":28.5900313,"lat":49.9106591,"district":"Бердичівський р-н","state":"Житомирська обл."},{"id":328,"name":"Вознесенівка","label":"м. Вознесенівка Довжанський р-н Луганська обл.","lng":39.7955373,"lat":48.0778483,"district":"Довжанський р-н","state":"Луганська обл."},{"id":329,"name":"Середина-Буда","label":"м. Середина-Буда Шосткинський р-н Сумська обл.","lng":34.0412051,"lat":52.1837429,"district":"Шосткинський р-н","state":"Сумська обл."},{"id":330,"name":"Краматорськ","label":"м. Краматорськ Краматорський р-н Донецька обл.","lng":37.5843812,"lat":48.7389415,"district":"Краматорський р-н","state":"Донецька обл."},{"id":331,"name":"Ланівці","label":"м. Ланівці Кременецький р-н Тернопільська обл.","lng":26.091582,"lat":49.8778811,"district":"Кременецький р-н","state":"Тернопільська обл."},{"id":332,"name":"Волочиськ","label":"м. Волочиськ Хмельницький р-н Хмельницька обл.","lng":26.2093072,"lat":49.5345161,"district":"Хмельницький р-н","state":"Хмельницька обл."},{"id":333,"name":"Сокиряни","label":"м. Сокиряни Дністровський р-н Чернівецька обл.","lng":27.4110397,"lat":48.4495656,"district":"Дністровський р-н","state":"Чернівецька обл."},{"id":334,"name":"Кременчук","label":"м. Кременчук Кременчуцький р-н Полтавська обл.","lng":33.410033,"lat":49.065783,"district":"Кременчуцький р-н","state":"Полтавська обл."},{"id":335,"name":"Судова Вишня","label":"м. Судова Вишня Яворівський р-н Львівська обл.","lng":23.3699446,"lat":49.7905276,"district":"Яворівський р-н","state":"Львівська обл."},{"id":336,"name":"Радехів","label":"м. Радехів Червоноградський р-н Львівська обл.","lng":24.6345078,"lat":50.2836918,"district":"Червоноградський р-н","state":"Львівська обл."},{"id":337,"name":"Святогірськ","label":"м. Святогірськ Краматорський р-н Донецька обл.","lng":37.578484,"lat":49.0440881,"district":"Краматорський р-н","state":"Донецька обл."},{"id":338,"name":"Решетилівка","label":"м. Решетилівка Полтавський р-н Полтавська обл.","lng":34.0791667,"lat":49.5586111,"district":"Полтавський р-н","state":"Полтавська обл."},{"id":339,"name":"Чортків","label":"м. Чортків Чортківський р-н Тернопільська обл.","lng":25.7925191,"lat":49.0160555,"district":"Чортківський р-н","state":"Тернопільська обл."},{"id":340,"name":"Молочанськ","label":"м. Молочанськ Пологівський р-н Запорізька обл.","lng":35.5958744,"lat":47.2090577,"district":"Пологівський р-н","state":"Запорізька обл."},{"id":341,"name":"Золотоноша","label":"м. Золотоноша Золотоніський р-н Черкаська обл.","lng":32.0477111,"lat":49.6617919,"district":"Золотоніський р-н","state":"Черкаська обл."},{"id":342,"name":"Заводське","label":"м. Заводське Миргородський р-н Полтавська обл.","lng":33.38474980000001,"lat":50.4024665,"district":"Миргородський р-н","state":"Полтавська обл."},{"id":343,"name":"Городня","label":"м. Городня Чернігівський р-н Чернігівська обл.","lng":31.5958532,"lat":51.8911132,"district":"Чернігівський р-н","state":"Чернігівська обл."},{"id":344,"name":"Олександрівськ","label":"м. Олександрівськ Луганський р-н Луганська обл.","lng":39.1949395,"lat":48.5861652,"district":"Луганський р-н","state":"Луганська обл."},{"id":345,"name":"Богодухів","label":"м. Богодухів Богодухівський р-н Харківська обл.","lng":35.5402444,"lat":50.1636245,"district":"Богодухівський р-н","state":"Харківська обл."},{"id":346,"name":"Корюківка","label":"м. Корюківка Корюківський р-н Чернігівська обл.","lng":32.2595792,"lat":51.7754831,"district":"Корюківський р-н","state":"Чернігівська обл."},{"id":347,"name":"Заліщики","label":"м. Заліщики Чортківський р-н Тернопільська обл.","lng":25.7383108,"lat":48.6469926,"district":"Чортківський р-н","state":"Тернопільська обл."},{"id":348,"name":"Збараж","label":"м. Збараж Тернопільський р-н Тернопільська обл.","lng":25.7723085,"lat":49.6669762,"district":"Тернопільський р-н","state":"Тернопільська обл."},{"id":349,"name":"Новоселиця","label":"м. Новоселиця Чернівецький р-н Чернівецька обл.","lng":26.2712988,"lat":48.2211075,"district":"Чернівецький р-н","state":"Чернівецька обл."},{"id":350,"name":"Коростень","label":"м. Коростень Коростенський р-н Житомирська обл.","lng":28.6457544,"lat":50.9532135,"district":"Коростенський р-н","state":"Житомирська обл."},{"id":351,"name":"Соснівка","label":"м. Соснівка Червоноградський р-н Львівська обл.","lng":24.2563161,"lat":50.2909116,"district":"Червоноградський р-н","state":"Львівська обл."},{"id":352,"name":"Старий Самбір","label":"м. Старий Самбір Самбірський р-н Львівська обл.","lng":23.0037506,"lat":49.443994,"district":"Самбірський р-н","state":"Львівська обл."},{"id":353,"name":"Дніпрорудне","label":"м. Дніпрорудне Василівський р-н Запорізька обл.","lng":34.9938425,"lat":47.382476,"district":"Василівський р-н","state":"Запорізька обл."},{"id":354,"name":"Скалат","label":"м. Скалат Тернопільський р-н Тернопільська обл.","lng":25.9712877,"lat":49.4285053,"district":"Тернопільський р-н","state":"Тернопільська обл."},{"id":355,"name":"Новояворівськ","label":"м. Новояворівськ Яворівський р-н Львівська обл.","lng":23.5710653,"lat":49.9315509,"district":"Яворівський р-н","state":"Львівська обл."},{"id":356,"name":"Болехів","label":"м. Болехів Калуський р-н Івано-Франківська обл.","lng":23.8543141,"lat":49.0702518,"district":"Калуський р-н","state":"Івано-Франківська обл."},{"id":357,"name":"Зборів","label":"м. Зборів Тернопільський р-н Тернопільська обл.","lng":25.1434666,"lat":49.66069599999999,"district":"Тернопільський р-н","state":"Тернопільська обл."},{"id":358,"name":"Первомайський","label":"м. Первомайський Лозівський р-н Харківська обл.","lng":36.2154517,"lat":49.39500049999999,"district":"Лозівський р-н","state":"Харківська обл."},{"id":359,"name":"Коростишів","label":"м. Коростишів Житомирський р-н Житомирська обл.","lng":29.0541431,"lat":50.3172235,"district":"Житомирський р-н","state":"Житомирська обл."},{"id":360,"name":"Новий Калинів","label":"м. Новий Калинів Самбірський р-н Львівська обл.","lng":23.3061973,"lat":49.5600739,"district":"Самбірський р-н","state":"Львівська обл."},{"id":361,"name":"Снігурівка","label":"м. Снігурівка Баштанський р-н Миколаївська обл.","lng":32.8061775,"lat":47.07537,"district":"Баштанський р-н","state":"Миколаївська обл."},{"id":362,"name":"Біла Церква","label":"м. Біла Церква Білоцерківський р-н Київська обл.","lng":30.1310853,"lat":49.7967977,"district":"Білоцерківський р-н","state":"Київська обл."},{"id":363,"name":"Хоростків","label":"м. Хоростків Чортківський р-н Тернопільська обл.","lng":25.9034702,"lat":49.2030849,"district":"Чортківський р-н","state":"Тернопільська обл."},{"id":364,"name":"Ямпіль","label":"м. Ямпіль Могилів-Подільський р-н Вінницька обл.","lng":28.2765218,"lat":48.2441219,"district":"Могилів-Подільський р-н","state":"Вінницька обл."},{"id":365,"name":"Кам’янка-Бузька","label":"м. Кам’янка-Бузька Львівський р-н Львівська обл.","lng":24.3454482,"lat":50.0994726,"district":"Львівський р-н","state":"Львівська обл."},{"id":366,"name":"Лисичанськ","label":"м. Лисичанськ Сєвєродонецький р-н Луганська обл.","lng":38.4433606,"lat":48.9066145,"district":"Сєвєродонецький р-н","state":"Луганська обл."},{"id":367,"name":"Андрушівка","label":"м. Андрушівка Бердичівський р-н Житомирська обл.","lng":29.0216369,"lat":50.0312719,"district":"Бердичівський р-н","state":"Житомирська обл."},{"id":368,"name":"Костянтинівка","label":"м. Костянтинівка Краматорський р-н Донецька обл.","lng":37.7075811,"lat":48.52394289999999,"district":"Краматорський р-н","state":"Донецька обл."},{"id":369,"name":"Кременець","label":"м. Кременець Кременецький р-н Тернопільська обл.","lng":25.7260783,"lat":50.0960966,"district":"Кременецький р-н","state":"Тернопільська обл."},{"id":370,"name":"Копичинці","label":"м. Копичинці Чортківський р-н Тернопільська обл.","lng":25.9110602,"lat":49.1037815,"district":"Чортківський р-н","state":"Тернопільська обл."},{"id":371,"name":"Сторожинець","label":"м. Сторожинець Чернівецький р-н Чернівецька обл.","lng":25.7100722,"lat":48.1547935,"district":"Чернівецький р-н","state":"Чернівецька обл."},{"id":372,"name":"Виноградів","label":"м. Виноградів Берегівський р-н Закарпатська обл.","lng":23.0302123,"lat":48.14634909999999,"district":"Берегівський р-н","state":"Закарпатська обл."},{"id":373,"name":"Гола Пристань","label":"м. Гола Пристань Скадовський р-н Херсонська обл.","lng":32.5345028,"lat":46.5320381,"district":"Скадовський р-н","state":"Херсонська обл."},{"id":374,"name":"Покров","label":"м. Покров Нікопольський р-н Дніпропетровська обл.","lng":34.07859000000001,"lat":47.6572805,"district":"Нікопольський р-н","state":"Дніпропетровська обл."},{"id":375,"name":"Підгайці","label":"м. Підгайці Тернопільський р-н Тернопільська обл.","lng":25.1313297,"lat":49.2744124,"district":"Тернопільський р-н","state":"Тернопільська обл."},{"id":376,"name":"Старобільськ","label":"м. Старобільськ Старобільський р-н Луганська обл.","lng":38.9255483,"lat":49.2736853,"district":"Старобільський р-н","state":"Луганська обл."},{"id":377,"name":"Мелітополь","label":"м. Мелітополь Мелітопольський р-н Запорізька обл.","lng":35.3586996,"lat":46.8550216,"district":"Мелітопольський р-н","state":"Запорізька обл."},{"id":378,"name":"Бережани","label":"м. Бережани Тернопільський р-н Тернопільська обл.","lng":24.938854,"lat":49.4450296,"district":"Тернопільський р-н","state":"Тернопільська обл."},{"id":379,"name":"Снятин","label":"м. Снятин Коломийський р-н Івано-Франківська обл.","lng":25.5699107,"lat":48.4464244,"district":"Коломийський р-н","state":"Івано-Франківська обл."},{"id":380,"name":"Молодогвардійськ","label":"м. Молодогвардійськ Луганський р-н Луганська обл.","lng":39.6490172,"lat":48.3477045,"district":"Луганський р-н","state":"Луганська обл."},{"id":381,"name":"Красноград","label":"м. Красноград Красноградський р-н Харківська обл.","lng":35.461353,"lat":49.37304899999999,"district":"Красноградський р-н","state":"Харківська обл."},{"id":382,"name":"Нова Одеса","label":"м. Нова Одеса Миколаївський р-н Миколаївська обл.","lng":31.7883933,"lat":47.309181,"district":"Миколаївський р-н","state":"Миколаївська обл."},{"id":383,"name":"Новодружеськ","label":"м. Новодружеськ Сєвєродонецький р-н Луганська обл.","lng":38.3447822,"lat":48.9659719,"district":"Сєвєродонецький р-н","state":"Луганська обл."},{"id":384,"name":"Коломия","label":"м. Коломия Коломийський р-н Івано-Франківська обл.","lng":25.0412055,"lat":48.5304917,"district":"Коломийський р-н","state":"Івано-Франківська обл."},{"id":385,"name":"Червоноград","label":"м. Червоноград Червоноградський р-н Львівська обл.","lng":24.2199454,"lat":50.3871767,"district":"Червоноградський р-н","state":"Львівська обл."},{"id":386,"name":"Помічна","label":"м. Помічна Новоукраїнський р-н Кіровоградська обл.","lng":31.4060472,"lat":48.2465578,"district":"Новоукраїнський р-н","state":"Кіровоградська обл."},{"id":387,"name":"Бобринець","label":"м. Бобринець Кропивницький р-н Кіровоградська обл.","lng":32.1610803,"lat":48.0581761,"district":"Кропивницький р-н","state":"Кіровоградська обл."},{"id":388,"name":"Гайворон","label":"м. Гайворон Голованівський р-н Кіровоградська обл.","lng":29.8686351,"lat":48.3367137,"district":"Голованівський р-н","state":"Кіровоградська обл."},{"id":389,"name":"Устилуг","label":"м. Устилуг Володимир-Волинський р-н Волинська обл.","lng":24.1551215,"lat":50.8609275,"district":"Володимир-Волинський р-н","state":"Волинська обл."},{"id":390,"name":"Долинська","label":"м. Долинська Кропивницький р-н Кіровоградська обл.","lng":32.7658685,"lat":48.1132559,"district":"Кропивницький р-н","state":"Кіровоградська обл."},{"id":391,"name":"Теребовля","label":"м. Теребовля Тернопільський р-н Тернопільська обл.","lng":25.7049422,"lat":49.30477330000001,"district":"Тернопільський р-н","state":"Тернопільська обл."},{"id":392,"name":"Звенигородка","label":"м. Звенигородка Звенигородський р-н Черкаська обл.","lng":30.9699903,"lat":49.0762064,"district":"Звенигородський р-н","state":"Черкаська обл."},{"id":393,"name":"Первомайськ","label":"м. Первомайськ Первомайський р-н Миколаївська обл.","lng":30.8884315,"lat":48.04512510000001,"district":"Первомайський р-н","state":"Миколаївська обл."},{"id":394,"name":"Вознесенськ","label":"м. Вознесенськ Вознесенський р-н Миколаївська обл.","lng":31.336117,"lat":47.5605,"district":"Вознесенський р-н","state":"Миколаївська обл."},{"id":395,"name":"Знам’янка","label":"м. Знам’янка Кропивницький р-н Кіровоградська обл.","lng":32.6770961,"lat":48.7192002,"district":"Кропивницький р-н","state":"Кіровоградська обл."},{"id":396,"name":"Яремче","label":"м. Яремче Надвірнянський р-н Івано-Франківська обл.","lng":24.5819174,"lat":48.481557,"district":"Надвірнянський р-н","state":"Івано-Франківська обл."},{"id":397,"name":"Великі Мости","label":"м. Великі Мости Червоноградський р-н Львівська обл.","lng":24.1444885,"lat":50.24232749999999,"district":"Червоноградський р-н","state":"Львівська обл."},{"id":398,"name":"Сєвєродонецьк","label":"м. Сєвєродонецьк Сєвєродонецький р-н Луганська обл.","lng":38.4878774,"lat":48.9481767,"district":"Сєвєродонецький р-н","state":"Луганська обл."},{"id":399,"name":"П’ятихатки","label":"м. П’ятихатки Кам’янський р-н Дніпропетровська обл.","lng":33.6941624,"lat":48.411634,"district":"Кам’янський р-н","state":"Дніпропетровська обл."},{"id":400,"name":"Кам’янське","label":"м. Кам’янське Кам’янський р-н Дніпропетровська обл.","lng":34.613683,"lat":48.523117,"district":"Кам’янський р-н","state":"Дніпропетровська обл."},{"id":401,"name":"Жовті Води","label":"м. Жовті Води Кам’янський р-н Дніпропетровська обл.","lng":33.5244801,"lat":48.34411979999999,"district":"Кам’янський р-н","state":"Дніпропетровська обл."},{"id":402,"name":"Верхівцеве","label":"м. Верхівцеве Кам’янський р-н Дніпропетровська обл.","lng":34.2526605,"lat":48.4841418,"district":"Кам’янський р-н","state":"Дніпропетровська обл."},{"id":403,"name":"Нікополь","label":"м. Нікополь Нікопольський р-н Дніпропетровська обл.","lng":34.394815,"lat":47.56746,"district":"Нікопольський р-н","state":"Дніпропетровська обл."},{"id":404,"name":"Горішні Плавні","label":"м. Горішні Плавні Кременчуцький р-н Полтавська обл.","lng":33.6450451,"lat":49.0156679,"district":"Кременчуцький р-н","state":"Полтавська обл."},{"id":405,"name":"Марганець","label":"м. Марганець Нікопольський р-н Дніпропетровська обл.","lng":34.649194,"lat":47.6490555,"district":"Нікопольський р-н","state":"Дніпропетровська обл."},{"id":406,"name":"Тернівка","label":"м. Тернівка Павлоградський р-н Дніпропетровська обл.","lng":36.0713939,"lat":48.5222847,"district":"Павлоградський р-н","state":"Дніпропетровська обл."},{"id":407,"name":"Кривий Ріг","label":"м. Кривий Ріг Криворізький р-н Дніпропетровська обл.","lng":33.391783,"lat":47.910483,"district":"Криворізький р-н","state":"Дніпропетровська обл."},{"id":408,"name":"Городенка","label":"м. Городенка Коломийський р-н Івано-Франківська обл.","lng":25.4962545,"lat":48.6723982,"district":"Коломийський р-н","state":"Івано-Франківська обл."},{"id":409,"name":"Монастириська","label":"м. Монастириська Чортківський р-н Тернопільська обл.","lng":25.1628643,"lat":49.0890218,"district":"Чортківський р-н","state":"Тернопільська обл."},{"id":410,"name":"Апостолове","label":"м. Апостолове Криворізький р-н Дніпропетровська обл.","lng":33.7205403,"lat":47.660528,"district":"Криворізький р-н","state":"Дніпропетровська обл."},{"id":411,"name":"Підгородне","label":"м. Підгородне Дніпровський р-н Дніпропетровська обл.","lng":35.0869121,"lat":48.57248,"district":"Дніпровський р-н","state":"Дніпропетровська обл."},{"id":412,"name":"Южноукраїнськ","label":"м. Южноукраїнськ Вознесенський р-н Миколаївська обл.","lng":31.1840826,"lat":47.8227621,"district":"Вознесенський р-н","state":"Миколаївська обл."},{"id":413,"name":"Старокостянтинів","label":"м. Старокостянтинів Хмельницький р-н Хмельницька обл.","lng":27.2121595,"lat":49.7546828,"district":"Хмельницький р-н","state":"Хмельницька обл."},{"id":414,"name":"Мала Виска","label":"м. Мала Виска Новоукраїнський р-н Кіровоградська обл.","lng":31.6294299,"lat":48.6435934,"district":"Новоукраїнський р-н","state":"Кіровоградська обл."},{"id":415,"name":"Баранівка","label":"м. Баранівка Новоград-Волинський р-н Житомирська обл.","lng":27.6688212,"lat":50.2924464,"district":"Новоград-Волинський р-н","state":"Житомирська обл."},{"id":416,"name":"Новодністровськ","label":"м. Новодністровськ Дністровський р-н Чернівецька обл.","lng":27.4413888,"lat":48.5780854,"district":"Дністровський р-н","state":"Чернівецька обл."},{"id":417,"name":"Вільногірськ","label":"м. Вільногірськ Кам’янський р-н Дніпропетровська обл.","lng":34.0212243,"lat":48.48012240000001,"district":"Кам’янський р-н","state":"Дніпропетровська обл."},{"id":418,"name":"Павлоград","label":"м. Павлоград Павлоградський р-н Дніпропетровська обл.","lng":35.9032574,"lat":48.5294478,"district":"Павлоградський р-н","state":"Дніпропетровська обл."},{"id":419,"name":"Надвірна","label":"м. Надвірна Надвірнянський р-н Івано-Франківська обл.","lng":24.5759679,"lat":48.6211999,"district":"Надвірнянський р-н","state":"Івано-Франківська обл."},{"id":420,"name":"Дунаївці","label":"м. Дунаївці Кам’янець-Подільський р-н Хмельницька обл.","lng":26.861818,"lat":48.8957041,"district":"Кам’янець-Подільський р-н","state":"Хмельницька обл."},{"id":421,"name":"Боково-Хрустальне","label":"м. Боково-Хрустальне Ровеньківський р-н Луганська обл.","lng":38.7973389,"lat":48.1526518,"district":"Ровеньківський р-н","state":"Луганська обл."},{"id":422,"name":"Галич","label":"м. Галич Івано-Франківський р-н Івано-Франківська обл.","lng":24.7313165,"lat":49.1237705,"district":"Івано-Франківський р-н","state":"Івано-Франківська обл."},{"id":423,"name":"Татарбунари","label":"м. Татарбунари Білгород-Дністровський р-н Одеська обл.","lng":29.6145762,"lat":45.8391132,"district":"Білгород-Дністровський р-н","state":"Одеська обл."},{"id":424,"name":"Семенівка","label":"м. Семенівка Новгород-Сіверський р-н Чернігівська обл.","lng":32.583994,"lat":52.1814619,"district":"Новгород-Сіверський р-н","state":"Чернігівська обл."},{"id":425,"name":"Тлумач","label":"м. Тлумач Івано-Франківський р-н Івано-Франківська обл.","lng":24.9968117,"lat":48.8588029,"district":"Івано-Франківський р-н","state":"Івано-Франківська обл."},{"id":426,"name":"Новоукраїнка","label":"м. Новоукраїнка Новоукраїнський р-н Кіровоградська обл.","lng":31.5187617,"lat":48.3226457,"district":"Новоукраїнський р-н","state":"Кіровоградська обл."},{"id":427,"name":"Перещепине","label":"м. Перещепине Новомосковський р-н Дніпропетровська обл.","lng":35.3644372,"lat":49.0140019,"district":"Новомосковський р-н","state":"Дніпропетровська обл."},{"id":428,"name":"Зеленодольськ","label":"м. Зеленодольськ Криворізький р-н Дніпропетровська обл.","lng":33.6473468,"lat":47.5658148,"district":"Криворізький р-н","state":"Дніпропетровська обл."},{"id":429,"name":"Новомиргород","label":"м. Новомиргород Новоукраїнський р-н Кіровоградська обл.","lng":31.6582633,"lat":48.7907203,"district":"Новоукраїнський р-н","state":"Кіровоградська обл."},{"id":430,"name":"Нововолинськ","label":"м. Нововолинськ Володимир-Волинський р-н Волинська обл.","lng":24.1658808,"lat":50.73717569999999,"district":"Володимир-Волинський р-н","state":"Волинська обл."},{"id":431,"name":"Корсунь-Шевченківський","label":"м. Корсунь-Шевченківський Черкаський р-н Черкаська обл.","lng":31.2618527,"lat":49.4261119,"district":"Черкаський р-н","state":"Черкаська обл."},{"id":432,"name":"Олександрія","label":"м. Олександрія Олександрійський р-н Кіровоградська обл.","lng":33.0967875,"lat":48.66327039999999,"district":"Олександрійський р-н","state":"Кіровоградська обл."},{"id":434,"name":"Світловодськ","label":"м. Світловодськ Олександрійський р-н Кіровоградська обл.","lng":33.2284693,"lat":49.04968350000001,"district":"Олександрійський р-н","state":"Кіровоградська обл."},{"id":435,"name":"Рогатин","label":"м. Рогатин Івано-Франківський р-н Івано-Франківська обл.","lng":24.6106017,"lat":49.40993659999999,"district":"Івано-Франківський р-н","state":"Івано-Франківська обл."},{"id":436,"name":"Благовіщенське","label":"м. Благовіщенське Голованівський р-н Кіровоградська обл.","lng":30.2350917,"lat":48.3216669,"district":"Голованівський р-н","state":"Кіровоградська обл."},{"id":437,"name":"Кам’янка-Дніпровська","label":"м. Кам’янка-Дніпровська Василівський р-н Запорізька обл.","lng":34.4167362,"lat":47.4870901,"district":"Василівський р-н","state":"Запорізька обл."},{"id":438,"name":"Бурштин","label":"м. Бурштин Івано-Франківський р-н Івано-Франківська обл.","lng":24.633877,"lat":49.2516597,"district":"Івано-Франківський р-н","state":"Івано-Франківська обл."},{"id":439,"name":"Петрово-Красносілля","label":"м. Петрово-Красносілля Ровеньківський р-н Луганська обл.","lng":38.8833563,"lat":48.2937383,"district":"Ровеньківський р-н","state":"Луганська обл."},{"id":440,"name":"Камінь-Каширський","label":"м. Камінь-Каширський Камінь-Каширський р-н Волинська обл.","lng":24.9688475,"lat":51.6288118,"district":"Камінь-Каширський р-н","state":"Волинська обл."},{"id":441,"name":"Синельникове","label":"м. Синельникове Синельниківський р-н Дніпропетровська обл.","lng":35.521396,"lat":48.3229038,"district":"Синельниківський р-н","state":"Дніпропетровська обл."},{"id":442,"name":"Новомосковськ","label":"м. Новомосковськ Новомосковський р-н Дніпропетровська обл.","lng":35.2241571,"lat":48.6329614,"district":"Новомосковський р-н","state":"Дніпропетровська обл."},{"id":443,"name":"Верхньодніпровськ","label":"м. Верхньодніпровськ Кам’янський р-н Дніпропетровська обл.","lng":34.336891,"lat":48.6482135,"district":"Кам’янський р-н","state":"Дніпропетровська обл."},{"id":444,"name":"Тисмениця","label":"м. Тисмениця Івано-Франківський р-н Івано-Франківська обл.","lng":24.8519696,"lat":48.9001898,"district":"Івано-Франківський р-н","state":"Івано-Франківська обл."},{"id":445,"name":"Першотравенськ","label":"м. Першотравенськ Синельниківський р-н Дніпропетровська обл.","lng":36.4007559,"lat":48.34614819999999,"district":"Синельниківський р-н","state":"Дніпропетровська обл."},{"id":446,"name":"Могилів-Подільський","label":"м. Могилів-Подільський Могилів-Подільський р-н Вінницька обл.","lng":27.7929285,"lat":48.4584391,"district":"Могилів-Подільський р-н","state":"Вінницька обл."},{"id":447,"name":"Володимир-Волинський","label":"м. Володимир-Волинський Володимир-Волинський р-н Волинська обл.","lng":24.3256569,"lat":50.8481952,"district":"Володимир-Волинський р-н","state":"Волинська обл."},{"id":448,"name":"Новоград-Волинський","label":"м. Новоград-Волинський Новоград-Волинський р-н Житомирська обл.","lng":27.6363775,"lat":50.58602029999999,"district":"Новоград-Волинський р-н","state":"Житомирська обл."},{"id":449,"name":"Новгород-Сіверський","label":"м. Новгород-Сіверський Новгород-Сіверський р-н Чернігівська обл.","lng":33.2779899,"lat":52.004259,"district":"Новгород-Сіверський р-н","state":"Чернігівська обл."},{"id":450,"name":"Білгород-Дністровський","label":"м. Білгород-Дністровський Білгород-Дністровський р-н Одеська обл.","lng":30.3414908,"lat":46.1854516,"district":"Білгород-Дністровський р-н","state":"Одеська обл."},{"id":451,"name":"Кам’янець-Подільський","label":"м. Кам’янець-Подільський Кам’янець-Подільський р-н Хмельницька обл.","lng":26.5825364,"lat":48.6967162,"district":"Кам’янець-Подільський р-н","state":"Хмельницька обл."}]